customer_id,customer_name,customer_gender,customer_age,number_complaints,distinct_stores_visited,lifetime_spend_groceries,lifetime_spend_electronics,typical_hour,lifetime_spend_vegetables,lifetime_spend_nonalcohol_drinks,lifetime_spend_alcohol_drinks,lifetime_spend_meat,lifetime_spend_fish,lifetime_spend_hygiene,lifetime_spend_videogames,lifetime_spend_petfood,lifetime_total_distinct_products,percentage_of_products_bought_promotion,customer_tenure,customer_loyalty,latitude,longitude,total_spend,percentage_lifetime_spend_groceries,percentage_lifetime_spend_electronics,percentage_lifetime_spend_vegetables,percentage_lifetime_spend_nonalcohol_drinks,percentage_lifetime_spend_alcohol_drinks,percentage_lifetime_spend_meat,percentage_lifetime_spend_fish,percentage_lifetime_spend_hygiene,percentage_lifetime_spend_videogames,percentage_lifetime_spend_petfood,customer_education,dietary_preferences,nr_childs
32,`s Fishy,True,55,,1.0,11783.0,13.0,12.0,1191.0,403.0,56.0,91.0,37960.0,152.0,0.0,0.0,26.0,0.1460783269713407,14.0,1,39.35671809565866,-9.3811240824615,51649.0,0.22813602816394737,0.0002516989193016478,0.023059493299097115,0.0078026664983510815,0.0010842414985301752,0.0017618924351115344,0.7349608443608115,0.0029429412102961894,0.0,0.0,3,Fish and Meat,0.0
163,`s Fishy,False,73,1.0,1.0,15867.0,245.0,6.0,733.0,520.0,120.0,62.0,36561.0,82.0,0.0,0.0,19.0,0.6944724410176764,9.0,1,39.35727449719274,-9.38200965835641,54190.0,0.2928030461703181,0.004521128525349968,0.013526478404414392,0.009595864625232584,0.0022144302981305965,0.0011441223207008082,0.6746815510829395,0.0015131940370559074,0.0,0.0,1,Fish and Meat,0.0
211,`s Fishy,False,76,0.0,1.0,15206.0,106.0,10.0,428.0,356.0,115.0,138.0,35195.0,4.0,0.0,0.0,21.0,0.5350248258399829,14.0,1,39.35732345922949,-9.380868649207969,51548.0,0.29498713917375274,0.00205633544340509,0.008302939337522438,0.006906183187285018,0.002230929962184767,0.0026771159546217205,0.6827615653834164,7.759756390207885e-05,0.0,0.0,1,Fish and Meat,0.0
219,`s Fishy,True,26,1.0,1.0,14898.0,241.0,17.0,239.0,305.0,115.0,102.0,38476.0,138.0,0.0,0.0,31.0,0.5584070278979467,3.0,1,39.35702662361633,-9.38218920697739,54514.0,0.27328754571531244,0.004420881898066204,0.004384194081484741,0.005594892028672996,0.0021095494534340803,0.0018710786456545758,0.7058002153941711,0.0025314593441208965,0.0,0.0,2,Fish and Meat,0.0
245,Laura`s Fishy,False,48,1.0,1.0,9438.0,119.0,6.0,23.0,358.0,86.0,0.0,44169.0,190.0,0.0,0.0,41.0,0.2426214246783443,16.0,1,38.9624791789633,-9.41790725714642,54383.0,0.17354684854700025,0.0021881834050744894,0.00042292620434212813,0.006582938311064429,0.00158137624232274,0.0,0.8121838051994548,0.003493738209782798,0.0,0.0,0,Only Fish,0.0
304,Allen`s Fishy,True,26,1.0,1.0,15025.0,376.0,17.0,372.0,479.0,96.0,54.0,44497.0,67.0,0.0,0.0,10.0,0.3005724470342946,3.0,1,39.3569119743028,-9.380850516598445,60966.0,0.24644879991326313,0.006167370966215437,0.0061017606367876134,0.007856836948981899,0.001574647906267771,0.0008857394472756212,0.7298657071374689,0.0010989730179160487,0.0,0.0,0,Fish and Meat,0.0
485,John`s Fishy,True,76,1.0,1.0,13027.0,36.0,7.0,313.0,232.0,75.0,33.0,35356.0,69.0,0.0,0.0,17.0,0.5101462491386525,16.0,1,39.35729215040983,-9.38096918602763,49141.0,0.2650942664792604,0.0007325856753859963,0.006369425455439357,0.004721107685820865,0.001526220157054159,0.00067153686910383,0.7194805316374246,0.0014041225444898263,0.0,0.0,0,Fish and Meat,0.0
498,Daniel`s Fishy,True,61,1.0,1.0,13536.0,363.0,17.0,20.0,249.0,80.0,40.0,38066.0,146.0,0.0,0.0,31.0,0.3472884807939806,13.0,1,39.357338573706365,-9.380872221135292,52500.0,0.2578285223183767,0.006914284397279162,0.0003809523083900365,0.004742856239455954,0.001523809233560146,0.000761904616780073,0.7250665285587564,0.0027809518512472665,0.0,0.0,0,Fish and Meat,0.0
637,Dianne`s Fishy,False,62,1.0,1.0,11689.0,143.0,17.0,39.0,241.0,140.0,87.0,34112.0,24.0,0.0,0.0,36.0,0.2897978564987965,13.0,1,38.96305341799806,-9.416967666165505,46475.0,0.25151151124012666,0.0030769224148633856,0.0008391606585991052,0.005185582531343188,0.003012371594971147,0.0018719737768749269,0.733985856054684,0.0005164065591379108,0.0,0.0,0,Fish and Meat,0.0
686,Jon`s Fishy,True,26,1.0,1.0,11601.0,56.0,7.0,357.0,251.0,88.0,34.0,43289.0,191.0,0.0,0.0,28.0,0.5933718670470995,3.0,1,38.96268475750343,-9.417008818366442,55867.0,0.20765385511055628,0.0010023804746307347,0.006390175525770933,0.004492812484505614,0.0015751693172768688,0.0006085881453115175,0.7748580065408905,0.0034188334045441126,0.0,0.0,0,Fish and Meat,0.0
811,Beth`s Fishy,False,37,0.0,1.0,11576.0,92.0,8.0,588.0,139.0,98.0,36.0,38868.0,24.0,0.0,0.0,17.0,0.3323417548944332,7.0,1,39.356679815521694,-9.382173726106542,51421.0,0.22512198807452438,0.0017891519439233107,0.011435014598118552,0.0027031752196232627,0.0019058357663530917,0.0007001029345786868,0.7558778017001222,0.00046673528971912453,0.0,0.0,0,Fish and Meat,0.0
859,Curtis`s Fishy,True,66,1.0,1.0,11784.0,42.0,9.0,194.0,220.0,71.0,112.0,39804.0,60.0,0.0,0.0,6.0,0.3567297997243844,13.0,1,39.357120363321336,-9.381486452440404,52287.0,0.2253714641552462,0.0008032587826307145,0.003710290567389491,0.004207546004256124,0.0013578898468281128,0.002142023420348572,0.7612598234245943,0.0011475125466153065,0.0,0.0,0,Fish and Meat,0.0
985,Luis`s Fishy,True,65,1.0,1.0,12138.0,153.0,9.0,670.0,272.0,151.0,63.0,35367.0,59.0,0.0,0.0,26.0,0.0,14.0,1,39.356237664922126,-9.382011937570637,48873.0,0.24835793825671879,0.00313056224693343,0.013708998074806524,0.00556544399454832,0.0030896398646205747,0.0012890550428549417,0.7236509476293765,0.0012072102782292311,0.0,0.0,0,Fish and Meat,0.0
1366,Tom`s Fishy,True,59,1.0,1.0,14116.0,127.0,17.0,480.0,339.0,51.0,84.0,39700.0,65.0,0.0,0.0,22.0,0.4949405510819111,14.0,1,38.9631625545037,-9.417218448145393,54962.0,0.2568319462843517,0.0023106869635954,0.008733305059258204,0.006167896698101106,0.0009279136625461841,0.0015283283853701857,0.722317105942814,0.0011826350601078818,0.0,0.0,0,Fish and Meat,0.0
1461,Alice`s Fishy,False,27,1.0,1.0,11036.0,202.0,6.0,507.0,316.0,82.0,96.0,43637.0,100.0,0.0,0.0,40.0,0.0494504267728536,4.0,1,38.96376208550242,-9.416958959171495,55976.0,0.19715588874591097,0.003608688793645706,0.00905745157613056,0.005645275538574471,0.001464913272668059,0.0017150204167821178,0.7795661034075133,0.001786479600814706,0.0,0.0,0,Fish and Meat,0.0
1467,Ruby`s Fishy,False,42,0.0,1.0,10020.0,211.0,7.0,372.0,312.0,94.0,67.0,35601.0,149.0,0.0,0.0,31.0,0.2735026463289024,11.0,1,38.96237887623124,-9.416375559503866,46826.0,0.2139836385803531,0.004506042688668114,0.007944302749689755,0.006662963596513988,0.0020074313399753682,0.0014308287210462731,0.7602825865368413,0.003181992230386488,0.0,0.0,0,Fish and Meat,0.0
1483,Ryan`s Fishy,True,47,1.0,1.0,13188.0,120.0,9.0,300.0,344.0,141.0,86.0,41404.0,60.0,0.0,0.0,6.0,0.8692257107983918,20.0,1,38.96365303483279,-9.417378157176351,55643.0,0.2370109021780094,0.0021566051153595034,0.005391512788398758,0.006182267997363909,0.0025340110105474163,0.0015455669993409773,0.7441006516362073,0.0010783025576797517,0.0,0.0,0,Fish and Meat,0.0
1488,Pamela`s Fishy,False,69,,1.0,15079.0,231.0,17.0,220.0,390.0,81.0,43.0,37001.0,81.0,0.0,0.0,14.0,0.3981424128078796,15.0,1,38.96356373319574,-9.41746279547715,53126.0,0.2838346038032971,0.004348152628062977,0.004141097741012359,0.007341036904521909,0.0015246768955545504,0.0008093963766524156,0.6964761705236286,0.0015246768955545504,0.0,0.0,0,Fish and Meat,0.0
1693,Bess`s Fishy,False,51,0.0,1.0,19748.0,36.0,17.0,505.0,458.0,143.0,39.0,35734.0,147.0,0.0,0.0,7.0,0.7564684222538882,15.0,1,38.96409408575972,-9.416636731999557,56810.0,0.34761479535032647,0.0006336911399945185,0.008889278491589775,0.008061959503263598,0.00251716202831156,0.0006864987349940617,0.6290088665712257,0.0025875721549776173,0.0,0.0,0,Fish and Meat,0.0
1789,Felipe`s Fishy,True,77,0.0,1.0,11997.0,72.0,17.0,513.0,281.0,143.0,138.0,39076.0,15.0,0.0,0.0,10.0,0.5295164864687549,13.0,1,39.3570857668773,-9.380656078466528,52235.0,0.22967354653516864,0.0013783858756799318,0.009820999364219514,0.005379533764806401,0.0027376275030865315,0.0026419062617198696,0.7480806455287363,0.0002871637240999858,0.0,0.0,0,Fish and Meat,0.0
1830,Alejandro`s Fishy,True,24,1.0,1.0,13810.0,578.0,6.0,925.0,439.0,152.0,37.0,43232.0,150.0,0.0,0.0,29.0,0.1341846371427567,1.0,1,39.35710828111099,-9.380403869771166,59323.0,0.2327933124094681,0.009743268252908947,0.015592600577752207,0.00740016394987375,0.0025622435543982006,0.0006237040231100883,0.7287560088404145,0.002528529823419277,0.0,0.0,0,Fish and Meat,0.0
1850,Julianna`s Fishy,False,45,1.0,1.0,11596.0,93.0,9.0,301.0,160.0,136.0,126.0,39259.0,17.0,0.0,0.0,33.0,0.4609691170814328,20.0,1,39.35671918056265,-9.38116257750083,51688.0,0.22434603305486125,0.0017992567328477145,0.005823400823517871,0.003095495454361659,0.0026311711362074107,0.0024377026703098067,0.7595378502674024,0.00032889639202592633,0.0,0.0,0,Fish and Meat,0.0
2179,Daisy`s Fishy,False,64,1.0,1.0,16723.0,99.0,7.0,305.0,313.0,123.0,102.0,39313.0,182.0,0.0,0.0,31.0,0.7723746275724892,12.0,1,38.96300547962434,-9.416972811960838,57160.0,0.29256467939736186,0.00173198010287262,0.005335898296728779,0.005475856284839698,0.0021518540672053766,0.0017844643484142147,0.6877710483255689,0.003184044229523403,0.0,0.0,0,Fish and Meat,0.0
2428,Vicki`s Fishy,False,48,,1.0,14386.0,64.0,17.0,640.0,274.0,197.0,17.0,44927.0,24.0,0.0,0.0,34.0,0.4854835440854713,14.0,1,38.96225026855161,-9.416771029398843,60529.0,0.23767115966377114,0.0010573442387377557,0.010573442387377556,0.004526755022096016,0.003254637734864654,0.0002808570634147163,0.7422391345901742,0.0003965040895266584,0.0,0.0,0,Fish and Meat,0.0
2715,June`s Fishy,False,69,0.0,1.0,12565.0,204.0,8.0,449.0,323.0,112.0,109.0,34719.0,81.0,0.0,0.0,39.0,0.6401922593230323,18.0,1,38.96366500753041,-9.417299462894697,48562.0,0.25874134946226485,0.004200814587369839,0.009245910537887538,0.006651289763335578,0.0023063295773795194,0.0022445528922711393,0.7149415767592816,0.0016679704979262596,0.0,0.0,0,Fish and Meat,0.0
3000,Thelma`s Fishy,False,48,1.0,1.0,15400.0,297.0,8.0,339.0,324.0,82.0,129.0,35115.0,101.0,0.0,0.0,3.0,0.5561421652156479,16.0,1,38.96286802471516,-9.416310699252993,51787.0,0.29737186989555875,0.005735028919414347,0.0065460431100385985,0.006256395184815651,0.0015834086578854426,0.0024909721569173426,0.6780657929469185,0.0019502960298345086,0.0,0.0,0,Fish and Meat,0.0
3090,Edward`s Fishy,True,63,0.0,1.0,15492.0,232.0,17.0,722.0,396.0,75.0,22.0,41409.0,133.0,0.0,0.0,17.0,0.2227658840550754,14.0,1,38.96235214423792,-9.417758805076488,58481.0,0.2649065055476983,0.003967099747422283,0.012345888007064173,0.006771428879220793,0.0012824675907615137,0.00037619049329004405,0.708076006211247,0.0022742425276170847,0.0,0.0,0,Fish and Meat,1.0
3092,Richard`s Fishy,True,49,1.0,1.0,11988.0,74.0,6.0,466.0,307.0,105.0,91.0,40023.0,150.0,0.0,0.0,27.0,0.3754872671011436,14.0,1,39.35664706677535,-9.382114791051375,53204.0,0.22532136205522854,0.0013908726052791886,0.008758738298109484,0.005770241754333931,0.0019735354534366864,0.0017103973929784616,0.7522553281228238,0.0028193363620524093,0.0,0.0,0,Fish and Meat,0.0
3096,Rebecca`s Fishy,False,39,0.0,1.0,13812.0,107.0,7.0,168.0,436.0,75.0,92.0,44248.0,71.0,0.0,0.0,8.0,0.5237415406783417,12.0,1,38.96237633153518,-9.417494139550204,59009.0,0.23406595026759472,0.0018132824122960205,0.002847022852950761,0.007388702165991261,0.001270992345067304,0.0015590839432825597,0.7498515904605076,0.0012032060866637145,0.0,0.0,0,Fish and Meat,0.0
3245,Julia`s Fishy,False,50,1.0,1.0,13837.0,583.0,11.0,823.0,217.0,97.0,139.0,36787.0,76.0,0.0,0.0,20.0,0.7425202886163709,13.0,1,39.35605725028087,-9.382158498577944,52559.0,0.2632659937848905,0.011092294166119187,0.015658590220782316,0.004128692682757913,0.0018455446554263484,0.002644646464992396,0.6999180540120523,0.0014459937506433244,0.0,0.0,0,Fish and Meat,0.0
3353,Jean`s Fishy,False,77,1.0,1.0,16520.0,424.0,6.0,1184.0,210.0,49.0,4.0,45522.0,58.0,0.0,0.0,6.0,0.3510776075350256,21.0,1,38.96310575691434,-9.417527767631176,63971.0,0.25824197554486006,0.00662800227790682,0.018508383719437915,0.0032827369772651703,0.0007659719613618731,6.252832337647944e-05,0.7116035841860242,0.0009066606889589518,0.0,0.0,0,Fish and Meat,0.0
3373,Seth`s Fishy,True,73,1.0,1.0,13339.0,407.0,6.0,409.0,256.0,174.0,60.0,43764.0,87.0,0.0,0.0,16.0,0.2807916127459645,17.0,1,39.35750817197884,-9.381705250713583,58496.0,0.22803264701301848,0.006957739510780308,0.0069919298769266485,0.004376366866731594,0.0029745618547316302,0.0010257109843902173,0.7481535920142245,0.0014872809273658151,0.0,0.0,0,Fish and Meat,1.0
3380,Samuel`s Fishy,True,36,0.0,1.0,16614.0,97.0,6.0,179.0,422.0,18.0,131.0,45222.0,118.0,0.0,0.0,7.0,0.4710042043230928,9.0,1,38.964006094505365,-9.418047873980209,62801.0,0.26454988542381724,0.0015445611463892062,0.0028502726309656483,0.006719637152332422,0.0002866195941753166,0.0020859537131648043,0.7200839604331204,0.0018789506729270755,0.0,0.0,0,Fish and Meat,0.0
3409,William`s Fishy,True,66,0.0,1.0,14358.0,106.0,9.0,98.0,126.0,61.0,109.0,33484.0,81.0,0.0,0.0,21.0,0.4464195663619371,17.0,1,38.96380645727439,-9.416252475579054,48423.0,0.29651192687113004,0.0021890419451413698,0.0020238312323005115,0.002602068727243515,0.0012597316854115429,0.0022509959624566916,0.6914894385954116,0.0016727584675136882,0.0,0.0,0,Fish and Meat,0.0
3455,Diana`s Fishy,False,53,1.0,1.0,13449.0,383.0,7.0,117.0,227.0,28.0,116.0,36783.0,104.0,0.0,0.0,30.0,0.7532102562878278,13.0,1,38.9628060209108,-9.41639787405386,51207.0,0.2626398221649731,0.007479444708839668,0.002284843422804807,0.004432986811766592,0.0005468001353720907,0.0022653148465415184,0.7183196206925575,0.002030971931382051,0.0,0.0,0,Fish and Meat,0.0
3490,Rita`s Fishy,False,72,1.0,1.0,12620.0,71.0,9.0,11.0,427.0,33.0,86.0,41717.0,61.0,0.0,0.0,23.0,0.5823214372740778,16.0,1,39.35732505009159,-9.381061187249578,55026.0,0.2293460856056981,0.0012902988968307896,0.00019990546288927726,0.007759966604883763,0.0005997163886678318,0.0015628972553161677,0.7581323813956345,0.0011085666578405375,0.0,0.0,0,Fish and Meat,0.0
3506,Richard`s Fishy,True,31,0.0,1.0,15463.0,153.0,7.0,898.0,320.0,84.0,60.0,42020.0,103.0,0.0,0.0,40.0,0.2027901377228353,10.0,1,39.356343930703865,-9.380446974390736,59101.0,0.2616368146669575,0.0025887882457507915,0.015194325782249744,0.0054144590760800875,0.0014212955074710228,0.0010152110767650162,0.7109861574277664,0.001742779015113278,0.0,0.0,0,Fish and Meat,0.0
3647,Hector`s Fishy,True,71,0.0,1.0,13846.0,129.0,,803.0,241.0,70.0,95.0,35938.0,109.0,0.0,0.0,19.0,0.4504822251745908,16.0,1,39.35589819172834,-9.382044155661704,51231.0,0.27026599709824184,0.0025180061841451103,0.01567410051060871,0.004704182095961021,0.0013663599448849437,0.0018543456394867093,0.7014891957039301,0.002127617628463698,0.0,0.0,0,Fish and Meat,0.0
3653,Frederick`s Fishy,True,57,0.0,1.0,12343.0,239.0,10.0,228.0,296.0,39.0,140.0,35127.0,154.0,0.0,0.0,9.0,0.6024484312331146,16.0,1,39.35751072686794,-9.38048494796375,48566.0,0.25414894079213013,0.004921137231574098,0.004694641375727592,0.006094797575505997,0.0008030307616376145,0.002882674528955539,0.7232836298472944,0.0031709419818510927,0.0,0.0,0,Fish and Meat,0.0
3674,Linda`s Fishy,False,45,1.0,1.0,13487.0,83.0,17.0,746.0,190.0,81.0,196.0,41637.0,79.0,0.0,0.0,17.0,0.6181604322513758,16.0,1,38.96235350778717,-9.416601434306758,56499.0,0.23871214734559065,0.0014690522895887909,0.01320377118112335,0.0033628907833960276,0.0014336534392372538,0.003469087334450639,0.7369509660434758,0.0013982545888857167,0.0,0.0,0,Fish and Meat,0.0
3714,David`s Fishy,True,69,0.0,1.0,16488.0,60.0,17.0,83.0,314.0,167.0,62.0,38238.0,67.0,0.0,0.0,36.0,0.2165874385835284,15.0,1,39.355695123547896,-9.380466408423027,55479.0,0.2971934791194003,0.001081490098687774,0.001496061303184754,0.005659798183132683,0.0030101474413476376,0.001117539768644033,0.6892336398937183,0.0012076639435346808,0.0,0.0,0,Fish and Meat,0.0
3759,Wayne`s Fishy,True,42,1.0,1.0,12244.0,182.0,7.0,361.0,247.0,151.0,84.0,41639.0,175.0,0.0,0.0,35.0,0.548578201289306,18.0,1,38.96334604350054,-9.417013509872705,55083.0,0.22228269660644906,0.0033041041148622777,0.006553744975083969,0.004484141298741663,0.002741317150242879,0.001524971129936436,0.755931819993134,0.0031770231873675748,0.0,0.0,0,Fish and Meat,0.0
3830,Seth`s Fishy,True,60,0.0,1.0,14025.0,567.0,9.0,808.0,317.0,172.0,69.0,34742.0,110.0,0.0,0.0,16.0,0.4061463236155944,16.0,1,38.96385278807063,-9.417559421211507,50810.0,0.2760282865521971,0.011159218429596844,0.01590237829120679,0.006238928116723457,0.003385159735256891,0.0013580001263530552,0.683762904199389,0.002164927737664291,0.0,0.0,0,Fish and Meat,0.0
4104,Tanya`s Fishy,False,51,1.0,1.0,14434.0,297.0,17.0,950.0,325.0,108.0,108.0,41426.0,74.0,0.0,0.0,28.0,0.4823254402254319,14.0,1,38.96314420775327,-9.41708526271463,57722.0,0.25006059213807696,0.005145350967507888,0.016458193330412436,0.005630434560404254,0.0018710367154574138,0.0018710367154574138,0.7176811756901743,0.0012820066383689688,0.0,0.0,0,Fish and Meat,0.0
4133,Reid`s Fishy,True,33,1.0,1.0,15258.0,149.0,7.0,813.0,357.0,146.0,67.0,39087.0,107.0,0.0,0.0,30.0,0.6560821138531718,14.0,1,39.355734171293705,-9.381636571504169,55984.0,0.27254210621925795,0.0026614742316600757,0.014522003693554641,0.0063768208100848794,0.002607887502163564,0.0011967702920887588,0.6981814986100495,0.0019112600187089135,0.0,0.0,0,Fish and Meat,0.0
4217,Deloris`s Fishy,False,62,1.0,1.0,10484.0,131.0,8.0,262.0,280.0,149.0,65.0,43886.0,135.0,0.0,0.0,20.0,0.43853940672408,11.0,1,38.963549695207305,-9.417621987916103,55392.0,0.18926917438092605,0.002364962022501079,0.004729924045002158,0.005054880658780932,0.0026899186362798534,0.0011734544386455736,0.7922803306830715,0.002437174603340807,0.0,0.0,0,Fish and Meat,0.0
4584,Matt`s Fishy,True,54,0.0,1.0,15024.0,50.0,6.0,347.0,484.0,54.0,157.0,43205.0,117.0,0.0,0.0,5.0,0.7033780713278921,15.0,1,38.96316128895169,-9.416618112053154,59438.0,0.2527675472311405,0.0008412125506893652,0.005838015101784195,0.008142937490673055,0.0009085095547445145,0.002641407409164607,0.7268917650506805,0.001968437368613115,0.0,0.0,0,Fish and Meat,0.0
4692,Mark`s Fishy,True,40,1.0,1.0,15771.0,122.0,17.0,47.0,321.0,108.0,54.0,35195.0,122.0,0.0,0.0,5.0,0.3890950136048969,16.0,1,38.963588462206346,-9.417898837925552,51740.0,0.3048124652469143,0.0023579431082444706,0.000908387918749919,0.006204096211036681,0.002087359472872154,0.001043679736436077,0.6802279319234766,0.0023579431082444706,0.0,0.0,0,Fish and Meat,0.0
4830,Larry`s Fishy,True,70,0.0,1.0,14101.0,378.0,6.0,735.0,221.0,126.0,131.0,37268.0,91.0,0.0,0.0,24.0,0.4768509017243762,11.0,1,38.96414059553192,-9.416383509774656,53051.0,0.2658007830576647,0.00712521778567458,0.013854590138811683,0.004165801932894397,0.00237507259522486,0.002469321507733783,0.7024936942765085,0.0017153302076623987,0.0,0.0,0,Fish and Meat,0.0
4974,Greg`s Fishy,True,41,0.0,1.0,13585.0,315.0,8.0,1002.0,287.0,33.0,102.0,44547.0,125.0,0.0,0.0,5.0,0.6913267657146419,19.0,1,39.35753069537036,-9.381717454245068,59996.0,0.22643172437633768,0.0052503491482183565,0.016701110623856485,0.004783651446154502,0.0005500365774323993,0.001700113057518325,0.7424993762085178,0.0020834718842136337,0.0,0.0,0,Fish and Meat,0.0
4990,Ricky`s Fishy,True,41,1.0,1.0,14148.0,97.0,6.0,1242.0,343.0,61.0,98.0,43834.0,117.0,0.0,0.0,1.0,0.3287826725654745,16.0,1,39.35679562524962,-9.381264906731223,59940.0,0.23603599665732455,0.0016182846816341872,0.020720717263810935,0.005722388101036353,0.0010176841812338704,0.0016349680288675293,0.7312978426263191,0.0019519516263010299,0.0,0.0,0,Fish and Meat,0.0
5011,Bruce`s Fishy,True,64,0.0,1.0,14362.0,191.0,7.0,423.0,299.0,159.0,28.0,33000.0,151.0,0.0,0.0,38.0,0.2876633382176021,12.0,1,38.96344672076236,-9.41711768039281,48613.0,0.29543531659529,0.003928989379592006,0.00870137438516973,0.006150616882188533,0.0032707293788226646,0.0005759775006731737,0.6788306257933833,0.0031061643786303296,0.0,0.0,0,Fish and Meat,0.0
5019,Stanley`s Fishy,True,45,1.0,1.0,16210.0,425.0,6.0,137.0,449.0,33.0,74.0,41952.0,151.0,0.0,0.0,15.0,0.3595230881323071,13.0,1,39.35735936375801,-9.38098979408159,59431.0,0.27275323101525617,0.007151148869924976,0.00230519387101111,0.007554978453167799,0.0005552656769588805,0.0012451412149987017,0.7058941115084533,0.0025407611279027564,0.0,0.0,0,Fish and Meat,0.0
5083,Michael`s Fishy,True,43,0.0,1.0,14269.0,146.0,6.0,239.0,213.0,65.0,88.0,40703.0,82.0,0.0,0.0,18.0,0.4909358799888123,13.0,1,39.35720154051531,-9.381317526798393,55805.0,0.25569388841611174,0.0026162525551021313,0.0042827695936260915,0.0038168616043613287,0.0011647699731619078,0.0015769193482807367,0.7293789571939867,0.0014694021199888683,0.0,0.0,0,Fish and Meat,0.0
5434,Teofila`s Fishy,False,67,0.0,,12466.0,105.0,6.0,283.0,146.0,68.0,10.0,42701.0,106.0,0.0,0.0,10.0,0.3207643707591165,10.0,1,38.96345088530117,-9.416681363800228,55885.0,0.2230651833112314,0.001878858033665915,0.005063969747880513,0.0026125073610973673,0.0012167842503741165,0.00017893886034913475,0.7640868275768403,0.0018967519197008284,0.0,0.0,0,Fish and Meat,0.0
5503,William`s Fishy,True,69,1.0,1.0,10899.0,81.0,17.0,1224.0,417.0,86.0,147.0,38477.0,196.0,0.0,0.0,23.0,0.3951704322937745,16.0,1,39.35718260937546,-9.380981512519485,51527.0,0.2115201328390683,0.0015719910780773035,0.023754531846501475,0.00809284295750908,0.0016690275643783715,0.0028528726972514027,0.7467345766812395,0.00380383026300187,0.0,0.0,0,Fish and Meat,0.0
5534,Regina`s Fishy,False,27,0.0,1.0,13550.0,261.0,11.0,434.0,360.0,37.0,114.0,41973.0,59.0,0.0,0.0,28.0,0.534942150709206,4.0,1,39.35618193691453,-9.38119885280529,56788.0,0.23860670588738714,0.004596040607867752,0.007642458328791588,0.006339366355679658,0.0006515459865559649,0.002007466012631892,0.7391172890192842,0.001038951708291944,0.0,0.0,0,Fish and Meat,
5647,Juana`s Fishy,False,72,1.0,1.0,14016.0,433.0,17.0,428.0,272.0,78.0,74.0,32637.0,9.0,0.0,0.0,10.0,0.4198100988874241,14.0,1,38.964210882771525,-9.41780103769446,47947.0,0.2923227120940388,0.009030802963521604,0.008926521174104496,0.005672929344290707,0.001626795914906894,0.0015433704833732072,0.6806889522412346,0.00018770722095079546,0.0,0.0,0,Fish and Meat,0.0
5789,Valerie`s Fishy,False,59,0.0,1.0,11266.0,181.0,11.0,764.0,181.0,11.0,59.0,39201.0,43.0,0.0,0.0,13.0,0.6261846997048699,18.0,1,39.35663469744221,-9.380306732666686,51706.0,0.2178856964596572,0.00350056018633037,0.014775845206388966,0.00350056018633037,0.00021274122679355842,0.0011410665800745405,0.7581517119576622,0.0008316247956475465,0.0,0.0,0,Fish and Meat,0.0
5979,Tyisha`s Fishy,False,58,1.0,1.0,15736.0,33.0,17.0,491.0,219.0,231.0,111.0,41899.0,95.0,0.0,0.0,23.0,0.4818051652758429,14.0,1,39.357502237234094,-9.382115396340152,58815.0,0.267550749375032,0.0005610812613990884,0.00834820907111977,0.00372353928019395,0.003927568829793619,0.0018872733337969337,0.7123861748897092,0.0016152339343307091,0.0,0.0,0,Fish and Meat,0.0
6078,Adrian`s Fishy,True,78,1.0,1.0,12331.0,323.0,17.0,514.0,173.0,100.0,156.0,47993.0,193.0,0.0,0.0,6.0,0.4351980527788395,11.0,1,38.96229748198052,-9.417590144466851,61783.0,0.19958561423278018,0.0052279744868370765,0.00831943927626705,0.002800122557965369,0.0016185679525811383,0.002524966006026576,0.7767993174822657,0.003123836148481597,0.0,0.0,0,Fish and Meat,0.0
6153,Colleen`s Fishy,False,32,0.0,1.0,13245.0,140.0,17.0,563.0,375.0,62.0,133.0,35325.0,67.0,0.0,0.0,24.0,0.7974208292379518,12.0,1,39.35697117560312,-9.38217797310791,49910.0,0.2653776266524491,0.0028050485263377027,0.011280302288058047,0.00751352283840456,0.001242235775949554,0.0026647961000208172,0.7077738513777095,0.0013424160804616147,0.0,0.0,0,Fish and Meat,0.0
6322,Karen`s Fishy,False,57,0.0,1.0,15561.0,322.0,17.0,474.0,410.0,144.0,82.0,39200.0,45.0,0.0,0.0,22.0,0.0,12.0,1,38.96225962291697,-9.416151820724163,56238.0,0.27669897992478754,0.005725664901727497,0.00842846324043116,0.007290442887292776,0.002560545794561365,0.0014580885774585551,0.6970374662972605,0.0008001705608004266,0.0,0.0,0,Fish and Meat,0.0
6457,John`s Fishy,True,59,0.0,,15160.0,147.0,17.0,290.0,422.0,60.0,39.0,44790.0,46.0,0.0,0.0,30.0,0.7082605411244107,17.0,1,38.96232956965439,-9.417249768293225,60954.0,0.24871210278044054,0.0024116542947707625,0.004757685343425314,0.006923252465260284,0.0009843486917431683,0.0006398266496330594,0.7348162983862752,0.000754667330336429,0.0,0.0,0,Fish and Meat,0.0
6559,Cyrus`s Fishy,True,30,1.0,1.0,14687.0,31.0,6.0,554.0,475.0,1.0,216.0,29430.0,71.0,0.0,0.0,21.0,0.5934104879515402,7.0,1,39.35649370957002,-9.381325823385536,45465.0,0.32303962981642365,0.0006818430260985315,0.012185194724470532,0.010447594754735565,2.1994936325759083e-05,0.004750906246363962,0.6473109760670898,0.001561640479128895,0.0,0.0,0,Fish and Meat,0.0
6576,Patrick`s Fishy,True,67,0.0,1.0,13370.0,186.0,9.0,287.0,485.0,122.0,46.0,47474.0,95.0,0.0,0.0,7.0,0.6122848316620898,13.0,1,39.35694745177596,-9.380345703379838,62065.0,0.21541928374779928,0.002996857649745001,0.004624183577832341,0.007814386882399599,0.0019656808240262912,0.0007411583434853229,0.7649076347526569,0.0015306531006762103,0.0,0.0,0,Fish and Meat,0.0
6597,John`s Fishy,True,49,1.0,1.0,18125.0,173.0,8.0,206.0,274.0,116.0,120.0,46985.0,62.0,0.0,0.0,23.0,0.4541611235303353,11.0,1,39.35602342005024,-9.380952533529792,66061.0,0.2743675883853426,0.002618791326381477,0.0031183295562692732,0.004147681060280489,0.0017559525656661926,0.0018165026541374406,0.7112364767053971,0.0009385263713043443,0.0,0.0,0,Fish and Meat,0.0
6692,Darren`s Fishy,True,67,1.0,1.0,12281.0,288.0,6.0,549.0,310.0,46.0,120.0,38414.0,155.0,0.0,0.0,29.0,0.593592354311151,6.0,1,38.96416401471517,-9.417934622914032,52163.0,0.2354350333694317,0.005521153783111825,0.010524699399056918,0.005942908585988423,0.00088185095146925,0.0023004807429632605,0.7364222271682558,0.0029714542929942115,0.0,0.0,0,Fish and Meat,0.0
6856,Helena`s Fishy,False,48,0.0,1.0,11503.0,76.0,8.0,,194.0,32.0,124.0,33747.0,72.0,0.0,0.0,11.0,0.6769626209786587,12.0,1,39.35572725798843,-9.38107915948511,45748.0,0.25144263105652026,0.0016612744466917796,,0.004240621613923753,0.0006994839775544334,0.00271050041302343,0.7376714309540459,0.0015738389494974754,0.0,0.0,0,Fish and Meat,0.0
7208,Ellen`s Fishy,False,72,0.0,1.0,14158.0,378.0,6.0,71.0,257.0,12.0,111.0,36287.0,160.0,0.0,0.0,18.0,0.2095972993989858,16.0,1,38.96367208804813,-9.417815117107477,51434.0,0.27526533513525386,0.007349222819686817,0.001380409577242762,0.0049966938218505615,0.00023330866094243866,0.0021581051137175575,0.7055059483015227,0.0031107821458991824,0.0,0.0,0,Fish and Meat,0.0
7237,Kenneth`s Fishy,True,39,0.0,1.0,14818.0,294.0,8.0,817.0,111.0,127.0,104.0,43463.0,51.0,0.0,0.0,19.0,0.2867073420079258,11.0,1,38.963256837913896,-9.416755914108494,59785.0,0.24785477162251876,0.004917620654408187,0.013665632906977853,0.0018566526960520705,0.002124278309897414,0.0017395664899947328,0.7269882534100103,0.0008530566441320324,0.0,0.0,0,Fish and Meat,0.0
7348,Kimberly`s Fishy,False,41,0.0,1.0,10669.0,6.0,8.0,944.0,305.0,116.0,61.0,36700.0,149.0,0.0,0.0,6.0,0.6451125539035006,15.0,1,38.963229348045424,-9.417626248350569,48950.0,0.21795705455422787,0.00012257403011766492,0.019284980738512616,0.0062308465309813005,0.0023697645822748554,0.00124616930619626,0.7497444842197172,0.0030439217479220127,0.0,0.0,0,Fish and Meat,0.0
7898,David`s Fishy,True,58,1.0,1.0,14413.0,258.0,7.0,298.0,324.0,113.0,132.0,42468.0,113.0,0.0,0.0,5.0,0.5844742352752682,16.0,1,39.35642216525664,-9.381399534038168,58119.0,0.24799114781893222,0.004439167150300736,0.00512741011933961,0.005574768049214878,0.0019442863875348186,0.0022712017978282835,0.7307075602285723,0.0019442863875348186,0.0,0.0,0,Fish and Meat,0.0
8107,Sherri`s Fishy,False,75,1.0,1.0,14840.0,167.0,17.0,353.0,401.0,66.0,66.0,38475.0,34.0,0.0,0.0,31.0,0.0375980179315119,15.0,1,39.35666208239951,-9.381433914668923,54402.0,0.2727840386779827,0.003069739518815573,0.006488730839173037,0.007371051179910448,0.001213190468513939,0.001213190468513939,0.7072348981223304,0.0006249769080223322,0.0,0.0,0,Fish and Meat,0.0
8293,Hui`s Fishy,False,30,1.0,1.0,12650.0,194.0,6.0,479.0,281.0,157.0,144.0,35439.0,188.0,0.0,0.0,16.0,0.4068516173312109,9.0,1,38.96397381249497,-9.417574225374286,49532.0,0.25539040309488753,0.0039166591462773265,0.00967051407766412,0.005673099072700663,0.0031696674534306196,0.0029072109127006958,0.7154767189944442,0.0037955253582481305,0.0,0.0,0,Fish and Meat,0.0
8298,Leland`s Fishy,True,48,0.0,1.0,14501.0,270.0,8.0,131.0,137.0,67.0,81.0,42217.0,154.0,0.0,0.0,21.0,0.7532229582825222,7.0,1,38.96292267504326,-9.4177921387674,57558.0,0.25193713264235507,0.00469091964784745,0.0022759647180296888,0.002380207376870743,0.0011640430237251078,0.001407275894354235,0.7334687213821326,0.0026755615769203972,0.0,0.0,0,Fish and Meat,0.0
8527,Trudy`s Fishy,False,52,1.0,1.0,14037.0,324.0,7.0,366.0,302.0,108.0,54.0,42141.0,36.0,0.0,0.0,25.0,0.2168506676912396,12.0,1,39.356658854841264,-9.381093565535611,57368.0,0.24468340456641252,0.00564774688890202,0.0063798622263522824,0.00526425790261855,0.0018825822963006735,0.0009412911481503367,0.7345731532259878,0.0006275274321002244,0.0,0.0,0,Fish and Meat,0.0
8642,Kenny`s Fishy,True,34,0.0,1.0,11751.0,197.0,7.0,1007.0,172.0,61.0,114.0,37088.0,67.0,0.0,0.0,9.0,0.3802208146546871,16.0,1,39.35674957750394,-9.381000755300931,50457.0,0.23289132669573562,0.003904313791086709,0.019957583693524447,0.003408842497801594,0.0012089499556156816,0.002259349097380126,0.7350415730143344,0.0013278630660041092,0.0,0.0,0,Fish and Meat,0.0
8979,Rosa`s Fishy,False,51,0.0,1.0,17606.0,28.0,6.0,349.0,359.0,132.0,229.0,36368.0,106.0,0.0,0.0,16.0,0.3743172106910287,10.0,1,39.35647317021053,-9.38180336870318,55177.0,0.3190821684611036,0.0005074577255998467,0.0063250980797980895,0.0065063329817980345,0.0023923007063992776,0.0041502792557987465,0.6591150915934009,0.0019210899611994197,0.0,0.0,0,Fish and Meat,0.0
9503,Maxine`s Fishy,False,72,0.0,1.0,13642.0,254.0,9.0,146.0,334.0,36.0,23.0,34848.0,140.0,0.0,0.0,29.0,0.4353804691795699,12.0,1,39.35736373970665,-9.380652355558745,49423.0,0.2760252764855884,0.005139306569955978,0.0029540896032030422,0.006757985804587782,0.0007284056555843118,0.00046537027995664364,0.7050966746056139,0.002832688660605657,0.0,0.0,0,Fish and Meat,1.0
9961,Angel`s Fishy,True,37,1.0,1.0,13879.0,112.0,8.0,522.0,318.0,63.0,75.0,38327.0,116.0,0.0,0.0,16.0,0.4865166975878238,16.0,1,39.35647888843121,-9.380437398346096,53412.0,0.25984792558827124,0.002096906669492498,0.00977308287031325,0.005953717150880485,0.00117951000158953,0.0014041785733208691,0.7175726957289194,0.0021717961934029444,0.0,0.0,0,Fish and Meat,0.0
9962,Linda`s Fishy,False,40,1.0,1.0,17040.0,90.0,7.0,989.0,289.0,186.0,92.0,40463.0,49.0,0.0,0.0,9.0,0.3457711749217488,10.0,1,39.35735696214641,-9.381656201649518,59198.0,0.2878475137931157,0.0015203213756678645,0.016706642672616866,0.004881920861866809,0.0031419975097135865,0.0015541062951271503,0.6835195980405422,0.000827730526752504,0.0,0.0,0,Fish and Meat,0.0
10023,Michele`s Fishy,False,69,1.0,1.0,12920.0,1.0,17.0,502.0,210.0,132.0,28.0,36608.0,106.0,0.0,0.0,13.0,0.6028685482126575,11.0,1,39.35721540489786,-9.38067545583573,50507.0,0.255806075235893,1.979923182940348e-05,0.009939214378360548,0.004157838684174731,0.0026134986014812595,0.0005543784912232975,0.7248102788108026,0.002098718573916769,0.0,0.0,0,Fish and Meat,0.0
10094,Alisha`s Fishy,False,78,0.0,1.0,15616.0,184.0,6.0,301.0,277.0,144.0,77.0,40769.0,104.0,0.0,0.0,15.0,0.2674372191061104,17.0,1,38.96335952348778,-9.41768856644137,57472.0,0.2717148747712147,0.0032015584629805013,0.005237332050853972,0.004819737468726081,0.002505567492767349,0.0013397826176603184,0.7093713966155003,0.0018095765225541963,0.0,0.0,0,Fish and Meat,0.0
10233,Elizabeth`s Fishy,False,39,1.0,1.0,12494.0,132.0,8.0,323.0,467.0,85.0,32.0,46086.0,150.0,0.0,0.0,20.0,0.1900508630507471,15.0,1,38.96348789555616,-9.417434200009994,59769.0,0.20903809516001687,0.00220850236602547,0.005404138365350204,0.007813413673741627,0.0014221416750921589,0.0005353945129758715,0.7710684851564381,0.002509661779574398,0.0,0.0,0,Fish and Meat,0.0
10428,John`s Fishy,True,65,,1.0,11911.0,38.0,8.0,374.0,259.0,96.0,81.0,34165.0,84.0,0.0,0.0,32.0,0.4250103090438671,13.0,1,39.35724144053016,-9.381419787372351,47008.0,0.25338234909327156,0.00080837287092136,0.007956090887489175,0.00550969930443769,0.0020422051475908042,0.001723110593279741,0.7267910298691648,0.0017869295041419537,0.0,0.0,0,Fish and Meat,0.0
10499,Lorenzo`s Fishy,True,57,1.0,1.0,17052.0,282.0,8.0,250.0,243.0,79.0,101.0,43601.0,126.0,0.0,0.0,11.0,0.1933708885680606,16.0,1,38.96395601423844,-9.41778224947728,61734.0,0.2762172747242565,0.004567984486995094,0.004049631637406998,0.003936241951559602,0.0012796835974206115,0.0016360511815124272,0.7062719560903301,0.002041014345253127,0.0,0.0,0,Fish and Meat,0.0
10518,Janet`s Fishy,False,64,0.0,1.0,16507.0,11.0,17.0,29.0,123.0,140.0,68.0,41629.0,22.0,0.0,0.0,19.0,0.4103962935533467,19.0,1,38.96297639370951,-9.416716854475832,58529.0,0.28203108168069135,0.00018794098857985125,0.0004954807880741533,0.002101521963211064,0.002391976218289016,0.0011618170203118077,0.7112541285082389,0.0003758819771597025,0.0,0.0,0,Fish and Meat,0.0
10647,Diane`s Fishy,False,23,0.0,1.0,12539.0,83.0,17.0,74.0,413.0,166.0,63.0,37792.0,162.0,0.0,0.0,29.0,0.7765787281000185,0.0,1,38.962619111413815,-9.416973671014228,51292.0,0.24446302650256832,0.0016181857564170326,0.0014427198310224146,0.008051936354219693,0.003236371512834065,0.0012282614777623258,0.7368009169459336,0.0031583866571031237,0.0,0.0,0,Fish and Meat,0.0
11050,Virgie`s Fishy,False,34,1.0,1.0,14723.0,98.0,10.0,156.0,469.0,170.0,37.0,39362.0,195.0,0.0,0.0,11.0,0.1210009308615366,11.0,1,39.355957458165065,-9.380680219965608,55210.0,0.26667265591873646,0.0017750404319796355,0.002825574565192073,0.008494836353045399,0.003079151769760592,0.0006701683263596583,0.7129504233018613,0.003531968206490091,0.0,0.0,0,Fish and Meat,0.0
11748,Natalie`s Fishy,False,47,1.0,1.0,12919.0,21.0,8.0,621.0,183.0,69.0,12.0,48875.0,84.0,0.0,0.0,23.0,0.5604672645968922,17.0,1,39.35622797877021,-9.38172147958341,62784.0,0.20576895295474118,0.00033448006904942835,0.009891053470461666,0.0029147548874307325,0.0010990059411624075,0.00019113146802824478,0.7784625416567053,0.0013379202761977134,0.0,0.0,0,Fish and Meat,
11809,Lisa`s Fishy,False,49,0.0,1.0,12955.0,424.0,8.0,874.0,162.0,119.0,12.0,42269.0,134.0,0.0,0.0,36.0,0.487311412754829,10.0,1,38.9625942313355,-9.416839132546029,56949.0,0.2274842003399181,0.007445256730538423,0.015347062222855147,0.00284464997723402,0.0020895885635237557,0.00021071481312844595,0.7422253696771901,0.002352982079934313,0.0,0.0,0,Fish and Meat,0.0
11905,Linda`s Fishy,False,52,1.0,1.0,17371.0,18.0,7.0,19.0,187.0,61.0,77.0,43153.0,141.0,0.0,0.0,30.0,0.5189518272771624,13.0,1,39.35616074974542,-9.38091602849908,61027.0,0.28464445497165924,0.0002949513666161917,0.0003113375536504246,0.0030642169754015475,0.0009995574090882052,0.0012617364016359314,0.7071131290882512,0.002310452371826835,0.0,0.0,0,Fish and Meat,0.0
12033,Sylvia`s Fishy,False,27,0.0,,12016.0,47.0,7.0,462.0,335.0,63.0,97.0,34115.0,127.0,0.0,0.0,17.0,0.0266205213404356,4.0,1,38.9630922006841,-9.417187109700262,47262.0,0.25424225503739684,0.0009944562239312294,0.00977529309481336,0.007088145425892804,0.0013329945129290945,0.0020523883770495583,0.721827108072636,0.0026871476689205556,0.0,0.0,0,Fish and Meat,0.0
12108,Karen`s Fishy,False,79,1.0,1.0,14169.0,210.0,7.0,608.0,276.0,166.0,92.0,35270.0,55.0,0.0,0.0,19.0,0.3170737041808955,10.0,1,39.35641835287461,-9.380643253847976,50846.0,0.2786649335906593,0.004130117584447629,0.011957673768305517,0.005428154539559741,0.0032647596143728875,0.0018093848465199137,0.6936630819212756,0.0010816974625934266,0.0,0.0,0,Fish and Meat,
12274,Thomas`s Fishy,True,23,1.0,1.0,14872.0,107.0,9.0,98.0,453.0,138.0,48.0,30255.0,179.0,0.0,0.0,28.0,0.3975667297635142,0.0,1,39.35576645780949,-9.38140667218996,46150.0,0.3222534512993605,0.0023185260414894816,0.0021235098323922354,0.00981581585789472,0.002990248539491107,0.001040086448518646,0.655579489581909,0.0038786557142674507,0.0,0.0,0,Fish and Meat,0.0
12286,Wendy`s Fishy,False,84,1.0,1.0,10857.0,22.0,17.0,686.0,229.0,87.0,69.0,45543.0,89.0,0.0,0.0,14.0,0.4498653534801108,16.0,1,38.96386548184011,-9.41705450316898,57582.0,0.1885484719967226,0.0003820637730430042,0.011913443104886404,0.003976936546674908,0.0015108885570336984,0.0011982909245439677,0.7909241098044337,0.0015456216273103352,0.0,0.0,0,Fish and Meat,0.0
12463,Ben`s Fishy,True,39,0.0,1.0,12700.0,54.0,7.0,546.0,262.0,103.0,82.0,36951.0,113.0,0.0,0.0,30.0,0.2254017494212352,17.0,1,39.35650641972008,-9.380747409903684,50811.0,0.24994582866980994,0.0010627617911944675,0.010745702555410727,0.0051563627646842684,0.0020271197128338917,0.0016138234607027098,0.7272242767856809,0.002223927451943978,0.0,0.0,0,Fish and Meat,0.0
12487,Derrick`s Fishy,True,51,0.0,1.0,17416.0,170.0,17.0,409.0,274.0,140.0,105.0,40936.0,72.0,0.0,0.0,29.0,0.3151833804891535,21.0,1,38.96286945539692,-9.41696690682641,59522.0,0.2925976458120282,0.0028560863452023882,0.006871407736398686,0.004603339168149732,0.0023520711078137313,0.0017640533308602986,0.6877455919247351,0.0012096365697327762,0.0,0.0,0,Fish and Meat,0.0
12607,Lupe`s Fishy,False,67,0.0,1.0,14072.0,108.0,9.0,645.0,411.0,115.0,59.0,37747.0,75.0,0.0,0.0,0.0,0.0,9.0,1,38.96312661426876,-9.416551213759885,53232.0,0.2643522196512963,0.0020288544430315516,0.012116769590327323,0.007720918297092295,0.002160354268042856,0.0011083556679524218,0.7091034135288147,0.0014089266965496888,0.0,0.0,0,Fish and Meat,0.0
12614,Janice`s Fishy,False,26,0.0,1.0,14549.0,378.0,8.0,800.0,400.0,80.0,124.0,41887.0,38.0,0.0,0.0,22.0,0.4166624360547614,3.0,1,38.962800212656056,-9.418075769528794,58256.0,0.24974247292253623,0.006488600918600501,0.013732488716614817,0.0068662443583074086,0.0013732488716614818,0.0021285357510752966,0.719015943591056,0.0006522932140392039,0.0,0.0,0,Fish and Meat,1.0
12890,Pamela`s Fishy,False,26,0.0,1.0,14494.0,92.0,7.0,635.0,367.0,149.0,123.0,36716.0,160.0,0.0,0.0,31.0,0.475647578989675,3.0,1,38.96364884646409,-9.416685096143643,52736.0,0.27484066390309014,0.0017445385041454597,0.012041108153612683,0.0069591916415367785,0.002825393881713842,0.0023323721305422993,0.6962225621543988,0.003033980007209495,0.0,0.0,0,Fish and Meat,0.0
13115,Jennifer`s Fishy,False,41,0.0,1.0,14170.0,243.0,10.0,756.0,329.0,53.0,38.0,40814.0,64.0,0.0,0.0,22.0,0.3530698904962842,18.0,1,38.96401365505776,-9.417489837945386,56467.0,0.25094298423096956,0.004303397683001101,0.013388348347114536,0.005826410854762807,0.0009386011407368656,0.000672959308452847,0.722793716189329,0.0011334051510784792,0.0,0.0,0,Fish and Meat,0.0
13164,Samuel`s Fishy,True,39,0.0,1.0,13417.0,403.0,8.0,159.0,410.0,136.0,159.0,36387.0,64.0,0.0,0.0,13.0,0.29060323169304,16.0,1,39.355753692615885,-9.38168166559434,51135.0,0.26238383448052516,0.007881097510296762,0.00310941564302031,0.008017990022882561,0.002659625958809825,0.00310941564302031,0.7115868364942141,0.0012515886864987412,0.0,0.0,0,Fish and Meat,0.0
13242,Joseph`s Fishy,True,70,0.0,1.0,16392.0,195.0,7.0,695.0,282.0,126.0,48.0,35359.0,157.0,0.0,0.0,7.0,0.278427740149008,10.0,1,38.963701123403865,-9.417035443315102,53254.0,0.3078078063980534,0.0036616960863604447,0.013050660410361585,0.005295375878736643,0.0023660190096482874,0.0009013405751041094,0.6639687790647126,0.002948134797736358,0.0,0.0,0,Fish and Meat,0.0
13460,Juanita`s Fishy,False,25,0.0,1.0,15134.0,439.0,17.0,59.0,220.0,114.0,115.0,48279.0,70.0,0.0,0.0,16.0,0.1405827796105989,2.0,1,39.35759962280833,-9.380703371628398,64430.0,0.23489054246615823,0.0068135950933423724,0.0009157223473968109,0.0034145579055474304,0.0017693618237836686,0.0017848825415361569,0.7493247323723836,0.0010864502426741825,0.0,0.0,0,Fish and Meat,0.0
13523,Anissa`s Fishy,False,40,0.0,1.0,13422.0,211.0,8.0,764.0,324.0,90.0,60.0,34535.0,77.0,0.0,0.0,24.0,0.2448555051957676,14.0,1,39.35715718065591,-9.381918055445697,49483.0,0.2712446150709102,0.004264089836087174,0.015439642818818013,0.006547701928399262,0.0018188060912220174,0.0012125373941480116,0.6979163151150263,0.0015560896558232814,0.0,0.0,0,Fish and Meat,0.0
13739,Floyd`s Fishy,True,47,0.0,1.0,10698.0,31.0,6.0,72.0,170.0,220.0,134.0,41963.0,184.0,0.0,0.0,31.0,0.2637003956544926,14.0,1,38.963613213967626,-9.416291174907505,53472.0,0.20006728753978015,0.0005797425606406043,0.0013464988505201131,0.003179233397061378,0.004114302043255902,0.002505983971801322,0.7847657120052154,0.0034410526179958446,0.0,0.0,0,Fish and Meat,0.0
13825,Kevin`s Fishy,True,71,0.0,1.0,14980.0,154.0,8.0,188.0,441.0,27.0,100.0,38555.0,122.0,0.0,0.0,31.0,0.501926489549934,15.0,1,38.962941738800815,-9.416093368293014,54567.0,0.27452484568973085,0.002822218039800971,0.0034453051394972897,0.0080818062048846,0.0004948044615235469,0.0018326091167538774,0.7065624449644574,0.0022357831224397305,0.0,0.0,0,Fish and Meat,0.0
14162,Princess`s Fishy,False,69,1.0,1.0,13594.0,11.0,6.0,1283.0,369.0,213.0,91.0,40279.0,117.0,0.0,0.0,30.0,0.5187365829909508,13.0,1,39.35580589980536,-9.381800541660755,55957.0,0.24293649714307464,0.00019657948128393564,0.02292831586248086,0.006594348053979296,0.0038064935921343903,0.001626248436076195,0.7198204478759677,0.002090890846383679,0.0,0.0,0,Fish and Meat,0.0
14322,Sean`s Fishy,True,53,1.0,1.0,12693.0,91.0,7.0,651.0,240.0,91.0,66.0,34910.0,172.0,0.0,0.0,23.0,0.0936383705640462,16.0,1,39.35604030353782,-9.381320082373891,48914.0,0.25949620568830895,0.0018604076827886324,0.013309070346103295,0.00490656971284914,0.0018604076827886324,0.0013493066710335137,0.7137014528148479,0.0035163749608752176,0.0,0.0,0,Fish and Meat,0.0
14384,Berta`s Fishy,False,46,1.0,1.0,9450.0,27.0,17.0,1253.0,128.0,82.0,18.0,36612.0,67.0,0.0,0.0,16.0,0.1185818926218297,16.0,1,39.35715578014276,-9.380946952020713,47637.0,0.19837517090178414,0.0005667862025765261,0.026303078215866194,0.002686986441844272,0.0017213506893064866,0.0003778574683843507,0.7685620906937694,0.001406469465652861,0.0,0.0,0,Fish and Meat,0.0
14534,Iris`s Fishy,False,46,1.0,1.0,11442.0,325.0,6.0,608.0,206.0,114.0,93.0,34079.0,115.0,0.0,0.0,1.0,0.5762296838806675,15.0,1,38.96385081697207,-9.416170916244182,46982.0,0.24354002734238062,0.006917541416384697,0.012941123634344295,0.0043846570208469155,0.002426460681439555,0.0019794810822270055,0.7253627505506894,0.0024477454242592006,0.0,0.0,0,Fish and Meat,0.0
14622,Lori`s Fishy,False,70,1.0,1.0,12542.0,167.0,6.0,245.0,42.0,100.0,121.0,33896.0,182.0,0.0,0.0,18.0,0.2789896882445964,12.0,1,38.9629453716712,-9.417789470014345,47295.0,0.26518653870672615,0.0035310279033665495,0.005180250516914998,0.0008880429457568567,0.002114387966087754,0.0025584094389661826,0.7166929449851052,0.0038481860982797125,0.0,0.0,0,Fish and Meat,0.0
14727,Tyler`s Fishy,True,39,1.0,1.0,14184.0,158.0,9.0,,392.0,95.0,54.0,40034.0,101.0,0.0,0.0,14.0,0.3652099576365487,14.0,1,38.96417879355173,-9.417103307551262,55018.0,0.25780648918417803,0.0028717868930555647,,0.00712493963340368,0.0017267073091156878,0.0009814967862341803,0.7276526359277625,0.0018357625075861523,0.0,0.0,0,Fish and Meat,0.0
14800,Bradley`s Fishy,True,63,0.0,1.0,7740.0,23.0,17.0,237.0,176.0,111.0,43.0,39460.0,75.0,0.0,0.0,11.0,0.6466446330560116,17.0,1,39.35751300714896,-9.381665819966733,47865.0,0.16170476095168473,0.0004805180234998384,0.00495142485084616,0.0036770074841726763,0.0023190217655861766,0.0008983597830649153,0.8244017916218966,0.0015669065983690382,0.0,0.0,0,Fish and Meat,0.0
14810,Willie`s Fishy,True,78,0.0,1.0,12647.0,143.0,17.0,314.0,408.0,122.0,52.0,39773.0,100.0,0.0,0.0,40.0,0.2991253031556121,16.0,1,38.964220736406354,-9.416500415564917,53559.0,0.23613207189602645,0.002669952263867461,0.005862692383597083,0.007617765899705763,0.0022778613719708412,0.0009708917323154405,0.7426014782573463,0.001867099485222001,0.0,0.0,0,Fish and Meat,0.0
15128,Jared`s Fishy,True,29,0.0,1.0,12599.0,100.0,17.0,433.0,225.0,154.0,33.0,36452.0,118.0,0.0,0.0,18.0,0.0893712918697873,6.0,1,39.35709556911227,-9.380863481385443,50114.0,0.2514067423461024,0.00199544997496708,0.008640298391607456,0.00448976244367593,0.003072992961449303,0.0006584984917391364,0.727381424875,0.0023546309704611545,0.0,0.0,0,Fish and Meat,0.0
15171,James`s Fishy,True,71,1.0,1.0,16265.0,257.0,8.0,433.0,147.0,2.0,20.0,39114.0,143.0,0.0,0.0,21.0,0.5645282225610869,13.0,1,38.96396120408255,-9.416488005201426,56381.0,0.28848365788409963,0.004558272368657461,0.007679890800111598,0.0026072608489986254,3.547293672106974e-05,0.00035472936721069737,0.6937442234539608,0.002536314975556486,0.0,0.0,0,Fish and Meat,0.0
15195,Teresa`s Fishy,False,39,0.0,1.0,14527.0,216.0,12.0,1482.0,455.0,128.0,49.0,47688.0,142.0,0.0,0.0,16.0,0.2638953439384627,18.0,1,39.35674857942067,-9.380350760045728,64687.0,0.22457368179484566,0.0033391557284839723,0.0229103184704317,0.007033869705834294,0.001978758950212724,0.0007574936606283085,0.7372113813886281,0.002195185710392241,0.0,0.0,0,Fish and Meat,0.0
15582,Jose`s Fishy,True,81,1.0,1.0,14904.0,25.0,17.0,101.0,326.0,125.0,56.0,47366.0,170.0,0.0,0.0,30.0,0.3199998762918614,15.0,1,39.35593522040652,-9.38190103233716,63073.0,0.23629758592462924,0.00039636605261109305,0.001601318852548816,0.005168613326048653,0.0019818302630554654,0.0008878599578488485,0.7509709779190814,0.002695289157755433,0.0,0.0,0,Fish and Meat,0.0
15712,Danielle`s Fishy,False,77,1.0,1.0,15627.0,25.0,6.0,506.0,555.0,92.0,95.0,39620.0,37.0,0.0,0.0,19.0,0.4637851501997921,11.0,1,38.96368589008911,-9.41781940944936,56557.0,0.276305271442037,0.0004420318542299177,0.008946724729613534,0.009813107163904173,0.0016266772235660973,0.0016797210460736873,0.7005320825835736,0.0006542071442602783,0.0,0.0,0,Fish and Meat,0.0
15721,Rodolfo`s Fishy,True,24,1.0,1.0,15430.0,487.0,11.0,300.0,435.0,126.0,159.0,40482.0,33.0,0.0,0.0,23.0,0.5424847073654979,1.0,1,38.96259329914768,-9.416120883181268,57452.0,0.268571978595701,0.00847663989475738,0.005221749421821795,0.007571536661641603,0.0021931347571651537,0.0027675271935655513,0.704622866980633,0.0005743924364003974,0.0,0.0,0,Fish and Meat,0.0
15918,Cecil`s Fishy,True,54,1.0,1.0,12066.0,438.0,10.0,532.0,170.0,120.0,35.0,44033.0,94.0,0.0,0.0,24.0,0.9432149041587128,16.0,1,38.963628531383264,-9.417178589059874,57488.0,0.2098872443140752,0.007618980027313521,0.009254103594819162,0.002957138366765522,0.0020873917883050745,0.0006088226049223134,0.7659510217869778,0.0016351235675056415,0.0,0.0,0,Fish and Meat,0.0
16094,Linda`s Fishy,False,27,0.0,1.0,16994.0,134.0,10.0,223.0,250.0,111.0,180.0,36454.0,87.0,0.0,0.0,13.0,0.3057617953061305,6.0,1,38.9634434991546,-9.416457436994856,54433.0,0.3122002623040688,0.0024617415057517486,0.004096778774497313,0.004592801316701024,0.0020392037846152546,0.003306816948024737,0.6697039167960764,0.0015982948582119562,0.0,0.0,0,Fish and Meat,0.0
16239,Robert`s Fishy,True,74,1.0,1.0,13868.0,243.0,11.0,74.0,328.0,126.0,104.0,39278.0,20.0,0.0,0.0,31.0,0.3357869225727319,13.0,1,38.96234743196968,-9.41794674740576,54041.0,0.2566199262375,0.004496585093431821,0.0013693304399751225,0.006069464652862705,0.0023315626410387222,0.0019244644021271992,0.726818392180309,0.00037008930810138445,0.0,0.0,0,Fish and Meat,0.0
16297,Ruth`s Fishy,False,40,1.0,1.0,10237.0,5.0,7.0,1134.0,254.0,157.0,77.0,35380.0,102.0,0.0,0.0,21.0,0.4704932095179395,14.0,1,39.3558287118365,-9.381424073787636,47346.0,0.21621674138961233,0.00010560551987379717,0.0239513319073772,0.005364760409588896,0.003316013324037231,0.0016263250060564766,0.7472646586269888,0.0021543526054254624,0.0,0.0,0,Fish and Meat,0.0
16427,Elaine`s Fishy,False,36,0.0,1.0,12939.0,278.0,10.0,259.0,368.0,94.0,101.0,44368.0,159.0,0.0,0.0,31.0,0.3922536704721026,12.0,1,38.96267997648531,-9.417341280202905,58566.0,0.22093019483485385,0.004746780598507565,0.004422360341775033,0.006283508130398502,0.0016050265333083132,0.0017245497857887194,0.7575725237215237,0.002714885306340657,0.0,0.0,0,Fish and Meat,0.0
16529,Blanche`s Fishy,False,23,1.0,,17882.0,358.0,17.0,642.0,85.0,152.0,80.0,38340.0,92.0,0.0,0.0,5.0,0.4504867074898275,0.0,1,38.96357444978785,-9.417622894389314,57631.0,0.3102843417111725,0.006211933471233629,0.011139836001486006,0.001474900405181169,0.0026374689598533843,0.0013881415578175706,0.6652668415840708,0.0015963627914902063,0.0,0.0,0,Fish and Meat,0.0
16698,Tonia`s Fishy,False,27,0.0,1.0,11964.0,103.0,8.0,172.0,37.0,1.0,105.0,42860.0,74.0,0.0,0.0,19.0,0.5261620145449655,4.0,1,38.96349003710915,-9.41771817271673,55316.0,0.21628458017850527,0.0018620287327303614,0.0031094072041710887,0.0006688841078740133,1.807794886145982e-05,0.001898184630453281,0.7748208882021679,0.0013377682157480267,0.0,0.0,0,Fish and Meat,0.0
16800,Patrick`s Fishy,True,24,0.0,,14426.0,59.0,7.0,340.0,334.0,111.0,125.0,35272.0,98.0,0.0,0.0,12.0,0.5208577219638824,1.0,1,39.35591187424858,-9.380334030543036,50765.0,0.2841721098843475,0.0011622178346857412,0.006697526504968678,0.006579334860763349,0.0021865454177985976,0.002462325920944367,0.6948092790683976,0.0019304635220203836,0.0,0.0,0,Fish and Meat,0.0
16923,Larry`s Fishy,True,52,0.0,1.0,14982.0,131.0,7.0,134.0,166.0,33.0,98.0,35902.0,143.0,0.0,0.0,26.0,0.5122578223365681,14.0,1,39.35565416575172,-9.382018756331702,51589.0,0.29041069018382015,0.0025393005215645736,0.002597452441905747,0.003217739592211597,0.0006396711237529078,0.0018996293978116657,0.6959234146962696,0.002771908202929267,0.0,0.0,0,Fish and Meat,0.0
16989,Ramon`s Fishy,True,79,0.0,1.0,11126.0,419.0,10.0,365.0,330.0,74.0,175.0,34091.0,89.0,0.0,0.0,22.0,0.4070344716065575,19.0,1,39.35660397524456,-9.381589365796662,46669.0,0.23840231451234983,0.008978120598658509,0.007821035843700135,0.007071073502523409,0.0015856346642022189,0.003749811705883626,0.7304847478015924,0.0019070470961351012,0.0,0.0,0,Fish and Meat,0.0
17073,George`s Fishy,True,48,0.0,1.0,15232.0,437.0,7.0,356.0,162.0,147.0,74.0,36676.0,134.0,0.0,0.0,25.0,0.549718291833537,15.0,1,38.96266711993021,-9.416942638292698,53218.0,0.2862188946937324,0.008211505841725385,0.006689464713167591,0.0030440822571155893,0.002762222788864146,0.0013905067100404543,0.689165190505996,0.002517944583046228,0.0,0.0,0,Fish and Meat,0.0
17197,Alma`s Fishy,False,38,0.0,1.0,12709.0,226.0,6.0,402.0,233.0,121.0,41.0,47219.0,95.0,0.0,0.0,7.0,0.3995776813622659,17.0,1,38.96352163092617,-9.416693024715942,61046.0,0.20818723451377083,0.003702125658990653,0.006585196968647091,0.003816793267897443,0.001982111525388801,0.0006716245664540565,0.7734985464242462,0.001556203263735009,0.0,0.0,0,Fish and Meat,0.0
17549,Joseph`s Fishy,True,50,0.0,1.0,10463.0,312.0,17.0,59.0,397.0,142.0,23.0,40999.0,149.0,0.0,0.0,4.0,0.2143225466704099,14.0,1,39.35727901481868,-9.381492050640256,52544.0,0.19912831167625006,0.0059378795032963795,0.001122868239405405,0.007555571034643149,0.0027024964406028393,0.0004377282967173613,0.7802792363963085,0.0028357180961255143,0.0,0.0,0,Fish and Meat,
17668,Robert`s Fishy,True,84,1.0,1.0,15381.0,39.0,17.0,407.0,438.0,88.0,149.0,43111.0,70.0,0.0,0.0,22.0,0.3515700815455085,15.0,1,39.35582815379482,-9.380672880770677,59683.0,0.25771153298065896,0.0006534522973958585,0.006819361154874729,0.0073387719553688726,0.0014744564659188602,0.002496522879794434,0.7223328716162271,0.0011728630978900024,0.0,0.0,0,Fish and Meat,0.0
17748,Cedric`s Fishy,True,44,0.0,1.0,16040.0,481.0,9.0,795.0,287.0,91.0,37.0,32421.0,74.0,0.0,0.0,14.0,0.3001289189577511,16.0,1,39.357572834432034,-9.381181873600934,50226.0,0.3193564449973231,0.009576711349358629,0.01582845223022892,0.005714170805126666,0.0018118102552840648,0.0007366701037968176,0.6455022009512601,0.0014733402075936353,0.0,0.0,0,Fish and Meat,0.0
17763,Sunni`s Fishy,False,68,1.0,1.0,10249.0,86.0,6.0,849.0,371.0,62.0,101.0,34611.0,82.0,0.0,0.0,26.0,0.4209825257481176,11.0,1,39.355777946335536,-9.381836494347729,46411.0,0.22083122086763463,0.0018530085856782689,0.018293073130707563,0.007993792852170207,0.0013358899106052635,0.002176207757598897,0.7457497692896577,0.0017668221398327681,0.0,0.0,0,Fish and Meat,0.0
17773,Wendy`s Fishy,False,48,1.0,1.0,13019.0,279.0,17.0,20.0,242.0,132.0,23.0,36104.0,93.0,0.0,0.0,14.0,0.3568762389375994,15.0,1,38.96324181133503,-9.417067379169692,49912.0,0.2608390245153421,0.005589836995144054,0.00040070516094222613,0.004848532447400936,0.002644654062218692,0.00046081093508356004,0.7233529565329065,0.0018632789983813514,0.0,0.0,0,Fish and Meat,0.0
17836,Sandra`s Fishy,False,68,1.0,1.0,14906.0,854.0,9.0,377.0,357.0,54.0,29.0,36233.0,65.0,0.0,0.0,15.0,0.13308716119983,18.0,1,38.96236750005332,-9.416416665344268,52875.0,0.2819101121683003,0.016151297181787767,0.007130022292194366,0.006751771772714558,0.0010212764025954793,0.0005484632532457204,0.6852575536155927,0.0012293141883093733,0.0,0.0,0,Fish and Meat,1.0
18817,Ralph`s Fishy,True,73,0.0,1.0,15642.0,177.0,7.0,755.0,391.0,76.0,125.0,42371.0,106.0,0.0,0.0,26.0,0.2828109227877835,15.0,1,38.96289454949702,-9.41792119625696,59643.0,0.2622604057038704,0.0029676570649268034,0.012658650192201902,0.006555671821391979,0.001274248231268006,0.002095803011953957,0.710410155356009,0.0017772409541369559,0.0,0.0,0,Fish and Meat,0.0
18824,Wendy`s Fishy,False,74,1.0,1.0,14419.0,43.0,7.0,,359.0,123.0,52.0,43221.0,107.0,0.0,0.0,15.0,0.3905897616768244,13.0,1,38.9640812895117,-9.417139848571452,58324.0,0.24722237034113395,0.0007372606924661044,,0.006155269502217012,0.002108908492403043,0.00089157106995901,0.7410498695134302,0.0018345789324156552,0.0,0.0,0,Fish and Meat,0.0
18962,Herta`s Fishy,False,78,1.0,1.0,11287.0,80.0,7.0,490.0,367.0,113.0,28.0,40035.0,95.0,0.0,0.0,25.0,0.1724981307246633,18.0,1,38.96335104043763,-9.41678411127907,52495.0,0.2150109124657753,0.0015239543720441237,0.009334220528770257,0.006991140681752417,0.002152585550512325,0.0005333840302154433,0.7626439160598312,0.001809695816802397,0.0,0.0,0,Fish and Meat,0.0
19034,Sarah`s Fishy,False,72,1.0,1.0,14560.0,111.0,9.0,631.0,217.0,2.0,89.0,38232.0,102.0,0.0,0.0,31.0,0.5293696320767769,16.0,1,39.35577412685406,-9.380405264094184,53944.0,0.2699094857797928,0.002057689074282761,0.011697313566418217,0.004022689451525758,3.70754788159056e-05,0.0016498588073077993,0.7087348530448515,0.0018908494196111856,0.0,0.0,0,Fish and Meat,
19042,Kathy`s Fishy,False,52,0.0,1.0,12526.0,276.0,7.0,342.0,280.0,159.0,95.0,42769.0,82.0,0.0,0.0,10.0,0.3589810309528067,15.0,1,39.35744929221944,-9.381778541696766,56529.0,0.22158534175638314,0.004882448852368014,0.006049990969238626,0.004953208980663202,0.0028127150997337472,0.0016805530470107295,0.7565849817642304,0.0014505826300513665,0.0,0.0,0,Fish and Meat,0.0
19730,Jacqueline`s Fishy,False,35,0.0,1.0,11686.0,336.0,6.0,457.0,379.0,111.0,130.0,43310.0,102.0,0.0,0.0,21.0,0.102767807418184,12.0,1,38.963432269632655,-9.417358837968823,56511.0,0.20679156150279387,0.005945744024040625,0.008086919699364778,0.006706657693783919,0.0019642190079419922,0.002300436675968099,0.7663993264321413,0.0018049580072980469,0.0,0.0,0,Fish and Meat,0.0
19934,Jack`s Fishy,True,52,0.0,1.0,14343.0,380.0,10.0,92.0,297.0,47.0,69.0,37503.0,192.0,0.0,0.0,29.0,0.3328634017077561,18.0,1,39.356790966944,-9.380785130623575,52923.0,0.2710163310816977,0.007180241637805559,0.001738374291258188,0.005611925701126976,0.0008880825183601612,0.001303780718443641,0.7086331635332155,0.003627911564364914,0.0,0.0,0,Fish and Meat,0.0
19964,Joseph`s Fishy,True,64,1.0,1.0,13850.0,143.0,9.0,504.0,429.0,81.0,36.0,42361.0,116.0,0.0,0.0,19.0,0.5375299252822605,8.0,1,39.356049144253824,-9.380893465429224,57520.0,0.24078577176881574,0.0024860913619451732,0.008762168156785786,0.00745827408583552,0.001408205596626287,0.0006258691540561276,0.7364567565269895,0.002016689496403078,0.0,0.0,0,Fish and Meat,0.0
20133,Paula`s Fishy,False,55,0.0,1.0,12565.0,210.0,8.0,216.0,348.0,106.0,104.0,45861.0,115.0,0.0,0.0,34.0,0.3585713487287676,13.0,1,38.96378758873952,-9.417059786960266,59525.0,0.21108774278240355,0.0035279288487309788,0.003628726815837578,0.005846282092182764,0.0017807640855499226,0.0017471647631810562,0.7704492615792924,0.0019319610362098217,0.0,0.0,0,Fish and Meat,1.0
20503,James`s Fishy,True,65,0.0,1.0,14014.0,348.0,6.0,216.0,292.0,26.0,67.0,38371.0,38.0,0.0,0.0,14.0,0.0596017654760937,10.0,1,38.962359527900816,-9.41648729356489,53372.0,0.26257208600537996,0.006520271580553177,0.004047065118964041,0.005471032475636574,0.00048714672728270865,0.0012553396433823646,0.718934887406339,0.0007119836783362665,0.0,0.0,0,Fish and Meat,0.0
20530,Mike`s Fishy,True,27,1.0,1.0,14716.0,13.0,8.0,94.0,413.0,96.0,78.0,41958.0,101.0,0.0,0.0,9.0,0.0,4.0,1,38.96324259940955,-9.416374559291732,57469.0,0.2560684445408056,0.00022620887326926285,0.0016356641605623622,0.007186481896938889,0.0016704655256807102,0.001357253239615577,0.7300978388178254,0.0017574689384765806,0.0,0.0,0,Fish and Meat,0.0
20741,Lewis`s Fishy,True,83,1.0,1.0,15241.0,39.0,9.0,611.0,259.0,125.0,43.0,37617.0,136.0,0.0,0.0,23.0,0.3128254127442063,14.0,1,39.35657834624668,-9.381242102882094,54071.0,0.2818700815834585,0.0007212737472445956,0.011299955373498663,0.004789997449650006,0.0023117748309121654,0.0007952505418337848,0.6956962705153834,0.0025152110160324356,0.0,0.0,0,Fish and Meat,0.0
20811,Barbara`s Fishy,False,23,1.0,1.0,14745.0,155.0,9.0,227.0,376.0,27.0,78.0,43366.0,24.0,0.0,0.0,21.0,0.4209234329507336,0.0,1,38.96361398746231,-9.416568309478604,58998.0,0.24992368386662533,0.002627207256651538,0.003847587401676768,0.006373096312909537,0.0004576425543844614,0.0013220784904439996,0.7350417412383909,0.0004067933816750768,0.0,0.0,0,Fish and Meat,0.0
20841,Philip`s Fishy,True,78,0.0,1.0,13569.0,108.0,12.0,205.0,46.0,171.0,20.0,42398.0,64.0,0.0,0.0,13.0,0.744532142987485,12.0,1,38.96262685828484,-9.417179795589876,56581.0,0.23981544337932462,0.0019087676236249581,0.0036231237300288557,0.0008129936174698896,0.0030222154040728507,0.0003534754858564737,0.7493326824671387,0.001131121554740716,0.0,0.0,0,Fish and Meat,0.0
20854,Trisha`s Fishy,False,71,0.0,1.0,12415.0,63.0,9.0,315.0,402.0,60.0,46.0,38995.0,85.0,0.0,0.0,18.0,0.3421852120365515,17.0,1,38.962401351068685,-9.417553265406932,52381.0,0.23701337564892314,0.001202725949728728,0.00601362974864364,0.007674537012554741,0.0011454532854559315,0.0008781808521828808,0.7444491811059007,0.0016227254877292361,0.0,0.0,0,Fish and Meat,0.0
20914,Anna`s Fishy,False,30,1.0,1.0,14060.0,13.0,9.0,74.0,381.0,135.0,76.0,44585.0,77.0,0.0,0.0,8.0,0.6308897596978011,7.0,1,39.3564285102242,-9.381396718073384,59401.0,0.23669631206607428,0.0002188514976428852,0.001245770063505654,0.006414032353995327,0.002272688629368423,0.0012794395246814826,0.7505764632621567,0.0012962742552693968,0.0,0.0,0,Fish and Meat,0.0
21068,Jesse`s Fishy,True,51,1.0,1.0,13752.0,306.0,9.0,282.0,432.0,129.0,10.0,46158.0,58.0,0.0,0.0,14.0,0.6046177146728353,11.0,1,39.3560686000018,-9.3809635541012,61127.0,0.22497419716750416,0.005005970355821428,0.004613345229874649,0.007067252267042016,0.0021103600519639353,0.00016359380247782444,0.755116273477142,0.0009488440543713818,0.0,0.0,0,Fish and Meat,0.0
21371,Patricia`s Fishy,False,51,0.0,1.0,14303.0,347.0,6.0,687.0,288.0,82.0,27.0,34835.0,114.0,0.0,0.0,11.0,0.4166629453245232,14.0,1,39.357362588140624,-9.381427124543029,50683.0,0.28220502294555905,0.006846475771663916,0.013554838199230866,0.005682377585703769,0.0016178991737073232,0.0005327228986597284,0.6873111916596902,0.002249274461007742,0.0,0.0,0,Fish and Meat,0.0
21480,Sergio`s Fishy,True,31,1.0,1.0,14681.0,139.0,7.0,382.0,188.0,80.0,99.0,38714.0,143.0,0.0,0.0,15.0,0.3549169198168309,8.0,1,39.356142460128375,-9.38150123974784,54426.0,0.26974235296689947,0.0025539259629724833,0.007018703006154594,0.0034542307988404807,0.0014698854463150981,0.001818983239814934,0.7113143146080338,0.002627420235288238,0.0,0.0,0,Fish and Meat,1.0
21725,Chad`s Fishy,True,28,0.0,1.0,11875.0,60.0,7.0,876.0,580.0,58.0,231.0,39847.0,87.0,0.0,0.0,24.0,0.1312935574480243,5.0,1,39.35729440695526,-9.381342993189268,53614.0,0.2214906141137363,0.0011191104713115098,0.016339012881148043,0.010818067889344595,0.0010818067889344595,0.004308575314549312,0.7432199158391621,0.001622710183401689,0.0,0.0,0,Fish and Meat,
21917,Gillian`s Fishy,False,24,0.0,1.0,14243.0,115.0,17.0,150.0,412.0,154.0,133.0,44910.0,111.0,0.0,0.0,0.0,0.2837139877897122,1.0,1,38.96355025772759,-9.417077174678829,60228.0,0.2364846522407099,0.0019094105881964222,0.00249053554982142,0.006840670976842834,0.0025569498311499915,0.0022082748541749925,0.7456663436165332,0.001842996306867851,0.0,0.0,0,Fish and Meat,0.0
21936,Brian`s Fishy,True,57,0.0,1.0,12953.0,64.0,6.0,669.0,141.0,140.0,100.0,38658.0,157.0,0.0,0.0,18.0,0.1683812959186206,13.0,1,38.96312330673056,-9.417953727151817,52882.0,0.24494152170085817,0.0012102414412765324,0.012650805065843752,0.0026663131753123606,0.0026474031527924146,0.0018910022519945818,0.7310236505760654,0.0029688735356314935,0.0,0.0,0,Fish and Meat,0.0
22053,Jose`s Fishy,True,80,0.0,1.0,14165.0,223.0,6.0,1289.0,300.0,145.0,120.0,37568.0,32.0,0.0,0.0,16.0,0.5068294237193438,15.0,1,38.96406144363563,-9.416142723132136,53842.0,0.26308453194819437,0.004141747308467867,0.023940413814417402,0.005571857365651839,0.002693064393398389,0.0022287429462607357,0.6977451250426944,0.0005943314523361962,0.0,0.0,0,Fish and Meat,0.0
22171,Minnie`s Fishy,False,44,1.0,1.0,11676.0,55.0,7.0,377.0,259.0,67.0,54.0,42195.0,6.0,0.0,0.0,19.0,0.4206710490695016,13.0,1,38.96393232056424,-9.416340851756264,54689.0,0.2134981050123233,0.0010056865172728487,0.006893523945670254,0.00473586923588487,0.0012251090301323793,0.0009874013078678878,0.7715444108423246,0.00010971125642976531,0.0,0.0,0,Fish and Meat,0.0
22356,Juan`s Fishy,True,58,0.0,1.0,13270.0,131.0,10.0,35.0,365.0,4.0,97.0,35927.0,72.0,0.0,0.0,26.0,0.4012400133682303,14.0,1,38.96250149157913,-9.416831133988827,49901.0,0.26592648124757395,0.002625197365744701,0.0007013886091684317,0.007314481209899359,8.015869819067791e-05,0.001943848431123939,0.7199653874741212,0.0014428565674322023,0.0,0.0,0,Fish and Meat,0.0
22832,Earl`s Fishy,True,57,1.0,1.0,15252.0,241.0,17.0,208.0,203.0,68.0,16.0,35213.0,96.0,0.0,0.0,14.0,0.2753671404921831,15.0,1,39.35586632129935,-9.38130948572677,51297.0,0.29732727112165014,0.0046981295790924265,0.004054817230088069,0.003957345662057106,0.0013256133252210996,0.00031190901769908224,0.6864532650148615,0.0018714541061944936,0.0,0.0,0,Fish and Meat,0.0
23002,Jennifer`s Fishy,False,75,,1.0,14802.0,41.0,10.0,352.0,372.0,88.0,18.0,40241.0,20.0,0.0,0.0,25.0,0.5835428062026248,15.0,1,38.963381759270376,-9.417304570428366,55934.0,0.26463327052718016,0.0007330066269162536,0.006293130065232226,0.006650694273484057,0.0015732825163080565,0.00032180778742664794,0.7194370652130966,0.00035756420825183103,0.0,0.0,0,Fish and Meat,0.0
23080,John`s Fishy,True,44,0.0,1.0,14254.0,461.0,8.0,324.0,253.0,86.0,69.0,47884.0,55.0,0.0,0.0,29.0,0.2380997076709316,17.0,1,38.96394228337654,-9.417643389945187,63386.0,0.22487612014070613,0.0072728982310134365,0.005111538019193825,0.0039914170335062895,0.0013567662643539165,0.0010885682818653516,0.7554348349107318,0.0008676993551100629,0.0,0.0,0,Fish and Meat,0.0
23107,Ramiro`s Fishy,True,65,0.0,1.0,12211.0,189.0,,776.0,534.0,25.0,100.0,40724.0,155.0,0.0,0.0,31.0,0.5578418103964293,16.0,1,39.356367276518135,-9.3817859302849,54714.0,0.22317867032593663,0.003454325500909182,0.014182839093680028,0.009759840304156102,0.0004569213625541246,0.0018276854502164983,0.7443066227461668,0.0028329124478355724,0.0,0.0,0,Fish and Meat,0.0
23326,Charles`s Fishy,True,84,0.0,1.0,15864.0,254.0,17.0,137.0,343.0,112.0,75.0,39950.0,66.0,0.0,0.0,24.0,0.529795334375448,11.0,1,39.357327855507805,-9.38172731520552,56801.0,0.2792908083852734,0.004471751470616455,0.0024119289428128124,0.00603862501740726,0.0019717959240513503,0.0013203990562843865,0.7033325639808166,0.00116195116953026,0.0,0.0,0,Fish and Meat,0.0
23479,Francesca`s Fishy,False,65,1.0,1.0,9682.0,220.0,6.0,502.0,432.0,185.0,181.0,38209.0,91.0,0.0,0.0,23.0,0.0183764222505443,10.0,1,39.356454680921935,-9.381601088913945,49502.0,0.19558801753706564,0.004444263980391907,0.010141002355257897,0.008726918361496836,0.0037372219835113763,0.0036564171838678874,0.77186764739452,0.0018383091918893798,0.0,0.0,0,Fish and Meat,0.0
23627,Brittany`s Fishy,False,51,1.0,1.0,15551.0,266.0,8.0,743.0,262.0,72.0,55.0,40892.0,83.0,0.0,0.0,23.0,0.5154863184428172,17.0,1,38.963728138833474,-9.417970172847486,57924.0,0.2684724348331547,0.004592223501100839,0.012827150606458358,0.004523167508603081,0.0012430078649596256,0.0009495198968441584,0.7059594113045695,0.0014329118443284572,0.0,0.0,0,Fish and Meat,0.0
23690,John`s Fishy,True,50,1.0,1.0,16072.0,100.0,9.0,79.0,302.0,102.0,73.0,44484.0,52.0,0.0,0.0,12.0,0.2478180039749259,14.0,1,38.96398016848556,-9.416163039232163,61264.0,0.26233999374183964,0.0016322797022264785,0.001289500964758918,0.0049294847007239646,0.001664925296271008,0.0011915641826253293,0.7261033027384267,0.0008487854451577687,0.0,0.0,0,Fish and Meat,0.0
24331,Nancy`s Fishy,False,78,1.0,1.0,14061.0,280.0,10.0,82.0,299.0,54.0,134.0,43269.0,162.0,0.0,0.0,20.0,0.3198144951382439,15.0,1,38.96263940130949,-9.41701596278653,58341.0,0.24101399684372965,0.004799368403118149,0.0014055293180560294,0.005125039830472596,0.0009255924777442146,0.002296840592920829,0.7416566836947115,0.0027767774332326436,0.0,0.0,0,Fish and Meat,0.0
24463,Stephanie`s Fishy,False,68,1.0,1.0,16382.0,77.0,17.0,92.0,567.0,87.0,55.0,40584.0,136.0,0.0,0.0,7.0,0.2282814530622203,10.0,1,39.35745295822572,-9.381590371243057,57980.0,0.28254565668408815,0.001328043924104187,0.0015867537794491584,0.009779232532039921,0.0015005171610008344,0.0009486028029315621,0.6999653846213548,0.002345636021794408,0.0,0.0,0,Fish and Meat,0.0
24705,Mario`s Fishy,True,45,0.0,1.0,14137.0,434.0,9.0,580.0,281.0,135.0,116.0,42250.0,78.0,0.0,0.0,4.0,0.4208697538221541,14.0,1,38.96261843657817,-9.41694012604818,58011.0,0.2436951192540864,0.007481338456268904,0.009998102084414665,0.004843908078828485,0.002327144450682724,0.001999620416882933,0.7283100225284821,0.0013445723492833514,0.0,0.0,0,Fish and Meat,0.0
24720,George`s Fishy,True,64,0.0,1.0,12497.0,236.0,7.0,14.0,272.0,199.0,162.0,44151.0,146.0,0.0,0.0,1.0,0.5847686999337487,10.0,1,38.96303806059058,-9.41737079634715,57677.0,0.21667211944585893,0.004091751635530344,0.00024273102922637633,0.004715917139255311,0.003450248201146349,0.0028087447667623547,0.7654869765266958,0.0025313378762179244,0.0,0.0,0,Fish and Meat,0.0
24741,Tarsha`s Fishy,False,61,1.0,1.0,13108.0,131.0,6.0,101.0,325.0,27.0,50.0,45832.0,139.0,0.0,0.0,31.0,0.6070190782836777,14.0,1,38.96322681634752,-9.41755742610692,59713.0,0.21951665139640422,0.002193826772423631,0.0016914236947693643,0.005442700007921222,0.00045216276988883995,0.000837338462757111,0.7675379285016782,0.0023278009264647687,0.0,0.0,0,Fish and Meat,0.0
24749,Roy`s Fishy,True,51,1.0,1.0,15396.0,168.0,17.0,37.0,301.0,118.0,97.0,42253.0,145.0,0.0,0.0,12.0,0.4222015273898484,13.0,1,38.96269189775744,-9.41739347335256,58515.0,0.2631119775934414,0.00287105821224332,0.0006323163919821598,0.005143979296935948,0.0020165766014566175,0.0016576943249262026,0.7220882300114108,0.002477996671281437,0.0,0.0,0,Fish and Meat,0.0
25035,Ian`s Fishy,True,80,0.0,1.0,13989.0,262.0,6.0,1024.0,345.0,11.0,12.0,42901.0,149.0,0.0,0.0,21.0,0.4204127235732962,11.0,1,38.9632773184412,-9.416688027958807,58693.0,0.23834184002490244,0.004463904645544674,0.01744671128640361,0.005878042376766842,0.0001874158438969138,0.0002044536478875423,0.7309388290019544,0.0025386327946036505,0.0,0.0,0,Fish and Meat,0.0
25036,Marian`s Fishy,False,62,0.0,1.0,11988.0,124.0,8.0,660.0,241.0,113.0,189.0,36453.0,58.0,0.0,0.0,28.0,0.0,17.0,1,38.96286315525979,-9.417450079471902,49826.0,0.24059723024179538,0.0024886600392044233,0.013246093757055802,0.0048368312052279525,0.00226789180992016,0.0037931995758841617,0.731605842009023,0.0011640506634988431,0.0,0.0,0,Fish and Meat,0.0
25089,Michael`s Fishy,True,82,1.0,1.0,12835.0,90.0,7.0,147.0,342.0,186.0,49.0,38412.0,53.0,0.0,0.0,11.0,0.1074428176848041,20.0,1,38.96231640985491,-9.417084646152466,52114.0,0.24628693896324616,0.0017269828209343322,0.002820738607526076,0.006562534719550463,0.003569097829930953,0.0009402462025086919,0.737076267974773,0.001017000994550218,0.0,0.0,0,Fish and Meat,0.0
25197,Emily`s Fishy,False,50,0.0,1.0,14001.0,106.0,6.0,25.0,400.0,115.0,139.0,36827.0,69.0,0.0,0.0,19.0,0.357270541837103,13.0,1,39.35667176042983,-9.381469580852352,51682.0,0.2709066462391846,0.002051003821252308,0.0004837273163330915,0.007739637061329464,0.002225145655132221,0.002689523878811989,0.7125690351439504,0.0013350873930793325,0.0,0.0,0,Fish and Meat,0.0
25215,Jana`s Fishy,False,37,0.0,1.0,15373.0,24.0,17.0,221.0,324.0,159.0,101.0,43017.0,167.0,0.0,0.0,28.0,0.6867819269001685,10.0,1,39.35689582011863,-9.380532537034233,59386.0,0.25886568233831503,0.00040413558681581737,0.0037214151952623185,0.005455830422013534,0.00267739826265479,0.0017007372611832314,0.7243625224190007,0.002812110124926729,0.0,0.0,0,Fish and Meat,0.0
25220,John`s Fishy,True,30,1.0,1.0,11870.0,110.0,9.0,468.0,492.0,68.0,50.0,39378.0,97.0,0.0,0.0,24.0,0.1864557467666341,7.0,1,39.35646715547777,-9.381258480301982,52533.0,0.22595316735134727,0.0020939215171565458,0.008908684272993305,0.00936553987673655,0.0012944242106058647,0.0009517825077984299,0.7495858318417314,0.0018464580651289541,0.0,0.0,0,Fish and Meat,0.0
25324,Justin`s Fishy,True,59,1.0,1.0,14585.0,43.0,17.0,88.0,608.0,51.0,9.0,43325.0,100.0,0.0,0.0,31.0,0.2062050472090978,16.0,1,39.35658110948398,-9.381929216646707,58809.0,0.2480062153741408,0.0007311804772772063,0.0014963693488463756,0.010338551864756778,0.0008672140544450586,0.00015303777431383388,0.7367068413496503,0.0017004197145981542,0.0,0.0,0,Fish and Meat,1.0
25563,Adam`s Fishy,True,49,1.0,1.0,11430.0,148.0,11.0,548.0,369.0,8.0,106.0,29813.0,220.0,0.0,0.0,33.0,0.8790954426790698,19.0,1,38.96234250517226,-9.417295807192678,42642.0,0.2680455259965466,0.0034707557171906296,0.012851176574462601,0.008653438240833394,0.00018760841714543942,0.0024858115271770725,0.6991462175446232,0.005159231471499584,0.0,0.0,0,Fish and Meat,0.0
25588,June`s Fishy,False,29,1.0,1.0,13596.0,332.0,8.0,135.0,473.0,87.0,39.0,35201.0,148.0,0.0,0.0,21.0,0.5108719750338276,11.0,1,39.35635800437336,-9.381230411705,50011.0,0.27186013639796514,0.006638538193889705,0.002699405590888886,0.009457917366595875,0.0017396169363506156,0.0007798282818123449,0.7038650089250347,0.002959348351493001,0.0,0.0,0,Fish and Meat,0.0
25633,Weldon`s Fishy,True,55,0.0,1.0,10763.0,141.0,17.0,279.0,379.0,161.0,97.0,34358.0,63.0,0.0,0.0,16.0,0.2170762136187259,17.0,1,39.356764008460566,-9.381089422652376,46241.0,0.2327587567832104,0.003049241355238564,0.006033605234833754,0.008196187756279545,0.0034817578595277223,0.0020977050458024166,0.7430201027183446,0.0013624269885108477,0.0,0.0,0,Fish and Meat,0.0
25919,Edison`s Fishy,True,43,0.0,1.0,14364.0,108.0,17.0,89.0,287.0,26.0,49.0,43004.0,32.0,0.0,0.0,24.0,0.3216312050046513,14.0,1,39.35618302307441,-9.381418188987634,57959.0,0.24783032008310701,0.0018633858652865188,0.0015355679815787053,0.004951775401270657,0.0004485928934949027,0.0008454250685096243,0.741972645840569,0.0005521143304552649,0.0,0.0,0,Fish and Meat,0.0
25956,William`s Fishy,True,44,1.0,1.0,16632.0,75.0,8.0,30.0,292.0,39.0,47.0,47129.0,122.0,0.0,0.0,11.0,0.2094991443402327,7.0,1,38.96418393768846,-9.417897085628129,64366.0,0.2583972503499906,0.001165211266008255,0.00046608450640330196,0.004536555862325473,0.0006059098583242926,0.0007301990600318398,0.7322032234093739,0.0018954103260400948,0.0,0.0,0,Fish and Meat,0.0
26035,Wanda`s Fishy,False,57,0.0,1.0,15518.0,17.0,6.0,185.0,103.0,77.0,132.0,45138.0,97.0,0.0,0.0,30.0,0.5921712852152248,13.0,1,39.35624454473936,-9.381943489404575,61267.0,0.2532847612442651,0.00027747396192502296,0.003019569585654661,0.0016811657693104332,0.0012567938275427509,0.0021545037043590016,0.7367423349042168,0.0015832337827486602,0.0,0.0,0,Fish and Meat,0.0
26345,Latoya`s Fishy,False,33,,1.0,15501.0,11.0,6.0,359.0,336.0,121.0,152.0,37579.0,100.0,0.0,0.0,14.0,0.1361721080605031,9.0,1,39.35703682942941,-9.380501428960834,54159.0,0.2862127649674542,0.00020310563283930041,0.0066286292899371685,0.006203953875818631,0.0022341619612323044,0.002806550562870333,0.69386423422437,0.0018464148439936402,0.0,0.0,0,Fish and Meat,0.0
26391,Timothy`s Fishy,True,73,0.0,1.0,14165.0,28.0,7.0,489.0,333.0,4.0,111.0,39118.0,101.0,0.0,0.0,16.0,0.2115138489810671,19.0,1,39.35727547809932,-9.380782465549244,54349.0,0.2606303224290562,0.000515188777127679,0.008997404000551252,0.006127066527982754,7.359839673252557e-05,0.002042355509327585,0.7197555208457339,0.0018583595174962708,0.0,0.0,0,Fish and Meat,0.0
26730,Rebecca`s Fishy,False,43,0.0,1.0,11713.0,8.0,17.0,155.0,300.0,50.0,7.0,40199.0,88.0,0.0,0.0,19.0,0.5827571604191266,14.0,1,39.357123471626736,-9.380919716110578,52520.0,0.2230197595164205,0.00015232289559731615,0.0029512561021980003,0.005712108584899355,0.0009520180974832259,0.00013328253364765162,0.765403510014564,0.0016755518515704775,0.0,0.0,0,Fish and Meat,0.0
26834,Christopher`s Fishy,True,61,0.0,1.0,14525.0,115.0,8.0,299.0,298.0,29.0,129.0,33198.0,64.0,0.0,0.0,28.0,0.1837174674456189,19.0,1,38.9640140969248,-9.417628647269792,48657.0,0.29851813746878403,0.002363482671869891,0.006145054946861716,0.006124502923628065,0.0005960086737758855,0.002651210997141008,0.6822860673107534,0.0013153294869536784,0.0,0.0,0,Fish and Meat,0.0
26862,Robert`s Fishy,True,48,1.0,1.0,11628.0,114.0,6.0,221.0,277.0,110.0,27.0,38574.0,130.0,0.0,0.0,17.0,0.5778359750252999,13.0,1,38.96391147147621,-9.4168139861672,51081.0,0.22763841200477436,0.0022317491373017094,0.0043264610468743666,0.005422758868706785,0.002153442150027965,0.0005285721640977733,0.7551534317743521,0.002544977086396686,0.0,0.0,0,Fish and Meat,0.0
26945,Martha`s Fishy,False,69,0.0,1.0,18055.0,396.0,6.0,404.0,322.0,157.0,159.0,42450.0,86.0,0.0,0.0,29.0,0.4503916053006735,11.0,1,39.35635752439797,-9.380428442527172,62029.0,0.29107348319761994,0.006384109628704376,0.006513081540395373,0.0051911194455626485,0.0025310737669358256,0.002563316744858575,0.6843572064103554,0.0013864480506782229,0.0,0.0,0,Fish and Meat,0.0
27055,Sandy`s Fishy,True,59,0.0,1.0,15284.0,140.0,,737.0,196.0,91.0,30.0,42322.0,282.0,0.0,0.0,15.0,0.4513972154284403,14.0,1,39.356092155559146,-9.381312397141867,59082.0,0.2586912665970572,0.002369587629127716,0.012474186304765189,0.0033174226807788022,0.0015402319589330152,0.0005077687776702248,0.7163263402853085,0.004773026510100113,0.0,0.0,0,Fish and Meat,0.0
27136,Ron`s Fishy,True,31,0.0,1.0,16051.0,42.0,9.0,109.0,363.0,23.0,24.0,36936.0,17.0,0.0,0.0,29.0,0.3702077741430947,8.0,1,38.96351466582196,-9.417648415463912,53565.0,0.2996545692794606,0.000784093944909186,0.00203491047607384,0.006776811952429394,0.00042938477935503043,0.00044805368280524915,0.6895546178372784,0.00031737135865371816,0.0,0.0,0,Fish and Meat,0.0
27266,William`s Fishy,True,72,0.0,1.0,13857.0,139.0,8.0,366.0,486.0,62.0,56.0,39142.0,41.0,0.0,0.0,9.0,0.4674102739709498,14.0,1,38.96252050078561,-9.41782606616242,54149.0,0.2559049556030664,0.0025669906061071106,0.0067591263441381475,0.008975233342216228,0.0011449886156736752,0.0010341832657697711,0.7228571676564354,0.000757169891010011,0.0,0.0,0,Fish and Meat,0.0
27441,Mark`s Fishy,True,77,0.0,1.0,15569.0,344.0,17.0,437.0,267.0,24.0,14.0,42833.0,65.0,0.0,0.0,14.0,0.4189489036734615,7.0,1,39.3559682510651,-9.381629510121488,59553.0,0.26143095034155284,0.005776366299537168,0.0073380002119120425,0.004483400587140768,0.00040300229996770943,0.00023508467498116383,0.7192415631048708,0.0010914645624125463,0.0,0.0,0,Fish and Meat,0.0
27524,Felix`s Fishy,True,32,0.0,1.0,13633.0,265.0,17.0,526.0,345.0,77.0,127.0,44159.0,138.0,0.0,0.0,24.0,0.185105309258038,13.0,1,39.35576074039529,-9.38163569177559,59270.0,0.23001514593974254,0.004471063865182408,0.008874639973909233,0.005820818994294079,0.0012991393117699828,0.002142736267464777,0.7450479593305281,0.0023283275977176313,0.0,0.0,0,Fish and Meat,0.0
27532,Marion`s Fishy,False,83,1.0,1.0,13065.0,162.0,17.0,389.0,326.0,72.0,57.0,40546.0,144.0,0.0,0.0,24.0,0.7009638067394364,17.0,1,38.96409794335252,-9.417348006990943,54761.0,0.23858215909458208,0.0029583092057651967,0.007103594327423837,0.005953140747404038,0.0013148040914511985,0.0010408865723988655,0.740417315166393,0.002629608182902397,0.0,0.0,0,Fish and Meat,0.0
27664,David`s Fishy,True,34,1.0,1.0,11693.0,135.0,17.0,251.0,269.0,163.0,117.0,41206.0,108.0,0.0,0.0,27.0,0.40853538544163,15.0,1,38.9626591900378,-9.416482843576675,53942.0,0.2167698237422002,0.0025026876084150366,0.004653145108979068,0.004986836790101073,0.0030217635568270443,0.002168995927293032,0.7638944117951852,0.0020021500867320294,0.0,0.0,0,Fish and Meat,0.0
27707,Margaret`s Fishy,False,67,1.0,1.0,16406.0,273.0,,562.0,232.0,156.0,92.0,41879.0,132.0,0.0,0.0,12.0,0.6951229793513416,17.0,1,38.96328471114087,-9.417182239677622,59732.0,0.2746601026819623,0.004570413753027899,0.009408690583156335,0.003884014617957775,0.002611665001730228,0.001540212693328083,0.7011148628683347,0.0022098703860794237,0.0,0.0,0,Fish and Meat,0.0
27900,Annette`s Fishy,False,78,0.0,1.0,11456.0,221.0,7.0,560.0,305.0,141.0,90.0,47414.0,53.0,0.0,0.0,19.0,0.4536786170898863,14.0,1,38.96351819546477,-9.416701770000298,60240.0,0.19017261119312562,0.0036686580895321894,0.009296147195194688,0.005063080168811393,0.002340637061647234,0.001494023656370575,0.787084862701716,0.000879813930973783,0.0,0.0,0,Fish and Meat,0.0
27981,Joseph`s Fishy,True,42,0.0,1.0,12886.0,39.0,17.0,290.0,451.0,164.0,90.0,37841.0,93.0,0.0,0.0,23.0,0.5413670284451354,15.0,1,38.96375559579535,-9.417918958851716,51854.0,0.24850537113715987,0.0007521115531855685,0.005592624369841407,0.008697495140684394,0.003162725505703416,0.0017356420458128502,0.729760340617823,0.0017934967806732785,0.0,0.0,0,Fish and Meat,0.0
28269,Martha`s Fishy,False,30,0.0,1.0,14175.0,506.0,17.0,607.0,360.0,66.0,29.0,44052.0,37.0,0.0,0.0,14.0,0.1050093865418513,7.0,1,38.96356452926424,-9.417186055513923,59832.0,0.23691331780429906,0.008457011556188736,0.010145071175111783,0.006016846166458389,0.0011030884638507047,0.00048469038563137023,0.7362614092356249,0.0006183980782193344,0.0,0.0,0,Fish and Meat,0.0
28291,Harold`s Fishy,True,84,1.0,1.0,14465.0,51.0,17.0,19.0,426.0,135.0,61.0,44782.0,78.0,0.0,0.0,17.0,0.2899301637953579,13.0,1,39.357483477663735,-9.381620642274688,60017.0,0.2410150055792516,0.0008497590932970503,0.0003165769171106658,0.007097987720481243,0.0022493623057863094,0.0010163785233552954,0.7461551316868335,0.0012996315544543122,0.0,0.0,0,Fish and Meat,0.0
28355,Denise`s Fishy,False,53,0.0,1.0,14918.0,96.0,17.0,38.0,134.0,59.0,71.0,37208.0,65.0,0.0,0.0,7.0,0.3028775358249093,14.0,1,39.35738100847077,-9.381655718485003,52589.0,0.28367143629438923,0.0018254764636185393,0.0007225844335156718,0.002548060897134211,0.0011219074099322272,0.0013500919678845447,0.7075242526908189,0.0012359996889083858,0.0,0.0,0,Fish and Meat,0.0
28586,Dorothy`s Fishy,False,65,0.0,1.0,14922.0,148.0,8.0,150.0,400.0,117.0,78.0,38238.0,187.0,0.0,0.0,22.0,0.6547450022349797,14.0,1,39.356979239130006,-9.381864972115716,54240.0,0.27511056874805145,0.002728613066258653,0.002765486215802689,0.00737462990880717,0.002157079248326097,0.001438052832217398,0.7049777461324214,0.003447639482367352,0.0,0.0,0,Fish and Meat,0.0
28623,Shirley`s Fishy,False,27,1.0,1.0,14517.0,270.0,8.0,217.0,411.0,213.0,50.0,34952.0,73.0,0.0,0.0,25.0,0.4171360437931051,4.0,1,39.356104444638646,-9.38080585823418,50703.0,0.2863143627962127,0.005325127640351135,0.0042798248072451715,0.008106027630312283,0.004200934027388118,0.0009861347482131731,0.6893476343909365,0.0014397567323912327,0.0,0.0,0,Fish and Meat,1.0
28839,Clifford`s Fishy,True,57,1.0,1.0,13994.0,154.0,6.0,11.0,255.0,156.0,103.0,36394.0,158.0,0.0,0.0,15.0,0.3159150408331359,15.0,1,38.96294424524309,-9.416396041976762,51225.0,0.2731868671182299,0.0030063439714311424,0.00021473885510222448,0.004978037095551567,0.003045387399631547,0.002010736552320829,0.7104732629627598,0.0030844308278319514,0.0,0.0,0,Fish and Meat,0.0
28851,Teresa`s Fishy,False,67,1.0,1.0,16623.0,267.0,7.0,301.0,295.0,54.0,100.0,36314.0,119.0,0.0,0.0,7.0,0.2712306838514743,16.0,1,39.35660030015197,-9.382211672512954,54073.0,0.30741769322625095,0.0049377683986891055,0.005566547895151389,0.0054555868075403975,0.0009986497884989201,0.0018493514601831856,0.671573489250922,0.0022007282376179907,0.0,0.0,0,Fish and Meat,0.0
29135,Margaret`s Fishy,False,24,0.0,1.0,14789.0,127.0,8.0,656.0,283.0,112.0,87.0,34223.0,118.0,0.0,0.0,8.0,0.3682593943369539,1.0,1,39.35582471536943,-9.382164999328117,50395.0,0.2934615947094762,0.002520090778829094,0.013017161818203825,0.005615635357548296,0.0022224422616445557,0.0017263613996703244,0.6790950135737646,0.002341501668518371,0.0,0.0,0,Fish and Meat,0.0
29289,Theodore`s Fishy,True,61,0.0,1.0,14624.0,184.0,7.0,301.0,243.0,101.0,12.0,39368.0,100.0,0.0,0.0,21.0,0.5936267987123734,15.0,1,39.35583538814495,-9.380386687738902,54933.0,0.2662151591547596,0.0033495342782053996,0.0054794011833686155,0.004423569726108217,0.0018386030548844857,0.0002184478877090478,0.7166547036108162,0.001820399064242065,0.0,0.0,0,Fish and Meat,0.0
29349,Dustin`s Fishy,True,23,0.0,,13997.0,285.0,9.0,161.0,367.0,152.0,17.0,42209.0,52.0,0.0,0.0,15.0,0.1486644749107992,0.0,1,38.96228771112369,-9.417570011665063,57240.0,0.2445317532264582,0.004979034769560662,0.0028127178873658476,0.006411599159399168,0.002655485210432353,0.0002969950564299342,0.7374037845206526,0.0009084554667268576,0.0,0.0,0,Fish and Meat,0.0
29584,Artie`s Fishy,False,47,1.0,,14073.0,239.0,17.0,480.0,510.0,137.0,104.0,40917.0,129.0,0.0,0.0,23.0,0.8769807159816886,19.0,1,39.35603260107884,-9.382073960393774,56589.0,0.24868786359754305,0.004223434903703033,0.00848221235890149,0.009012350631332832,0.0024209647774364666,0.0018378126777619894,0.7230555897691089,0.0022795945714547752,0.0,0.0,0,Fish and Meat,0.0
29635,Rudy`s Fishy,True,62,1.0,1.0,13765.0,580.0,9.0,115.0,184.0,217.0,180.0,36107.0,58.0,0.0,0.0,7.0,0.3673158196321453,15.0,1,38.96231246610346,-9.417406191959044,51206.0,0.2688161018599184,0.011326795428895944,0.0022458301281431613,0.0035933282050290578,0.004237783807017965,0.003515212374484948,0.7051320733640446,0.0011326795428895943,0.0,0.0,0,Fish and Meat,0.0
29655,Douglas`s Fishy,True,77,1.0,1.0,14313.0,182.0,8.0,304.0,397.0,140.0,117.0,39189.0,153.0,0.0,0.0,32.0,0.0124679426970871,16.0,1,39.35580338289738,-9.38080131485763,54795.0,0.26120991674241867,0.0033214703309662687,0.005547950442932668,0.007245185282382465,0.0025549771776663603,0.002135230927049744,0.7151928615397642,0.0027922250584496654,0.0,0.0,0,Fish and Meat,0.0
29680,Rene`s Fishy,True,84,0.0,1.0,13066.0,133.0,7.0,169.0,268.0,15.0,49.0,41541.0,124.0,0.0,0.0,15.0,0.6380190725262269,15.0,1,39.357324540162864,-9.381161878579626,55365.0,0.23599742870090692,0.002402239248218324,0.0030524694206683967,0.004840602394906097,0.00027092923852086364,0.0008850355125014878,0.7503114331596797,0.002239681705105806,0.0,0.0,0,Fish and Meat,0.0
29745,Joe`s Fishy,True,62,0.0,,11967.0,32.0,11.0,270.0,14.0,17.0,103.0,37979.0,41.0,0.0,0.0,14.0,0.3767514989824204,14.0,1,38.962996069362056,-9.41763309876805,50423.0,0.2373321227748998,0.0006346308956962307,0.005354698182436946,0.00027765101686710094,0.00033714766333862257,0.0020427181955222427,0.7532077121139733,0.0008131208351107956,0.0,0.0,0,Fish and Meat,0.0
29784,Jerry`s Fishy,True,27,1.0,1.0,12445.0,226.0,7.0,419.0,227.0,87.0,39.0,30920.0,97.0,0.0,0.0,15.0,0.2579207763019698,6.0,1,39.35654254290812,-9.381405237598395,44460.0,0.2799144669558104,0.005083219729370281,0.009424199409761715,0.00510571185206661,0.001956814674580595,0.0008771927851568184,0.6954564337704827,0.002181735901543882,0.0,0.0,0,Fish and Meat,0.0
29825,Kara`s Fishy,False,54,1.0,1.0,11955.0,75.0,17.0,107.0,245.0,85.0,97.0,43719.0,107.0,0.0,0.0,9.0,0.0053378778466347,10.0,1,39.3575429177064,-9.382030978009093,56390.0,0.21200563716871126,0.0013300228178714634,0.0018974992201632877,0.00434474120504678,0.0015073591935876585,0.0017201628444470927,0.7752969009936335,0.0018974992201632877,0.0,0.0,0,Fish and Meat,0.0
30221,Robert`s Fishy,True,43,0.0,1.0,13894.0,210.0,6.0,34.0,477.0,115.0,89.0,34135.0,77.0,0.0,0.0,17.0,0.0323612170555352,15.0,1,38.96275228256125,-9.418036712590135,49031.0,0.28337168661220724,0.004283003756194294,0.000693438703383838,0.009728537103355611,0.002345454437915923,0.0018151777823871055,0.6961920629413916,0.0015704347106045744,0.0,0.0,0,Fish and Meat,0.0
30310,Pattie`s Fishy,False,33,0.0,1.0,12078.0,67.0,17.0,442.0,239.0,175.0,128.0,39932.0,108.0,0.0,0.0,14.0,0.700250115891683,10.0,1,39.356011981331605,-9.381104685367731,53169.0,0.22716240155684672,0.0012601325471360103,0.008313113221404723,0.0044950996830672605,0.0032913909813254,0.002407417403483721,0.7510389980930621,0.0020312584341893895,0.0,0.0,0,Fish and Meat,0.0
30367,Stasia`s Fishy,False,40,0.0,1.0,15169.0,391.0,8.0,597.0,339.0,130.0,41.0,39591.0,115.0,0.0,0.0,17.0,0.305872696171189,12.0,1,38.96265945724752,-9.417932367524568,56373.0,0.26908266917093837,0.006935943282077717,0.010590174269566233,0.0060135160425175095,0.00230606809890052,0.0007272984004224717,0.7023041700274653,0.002039983318258152,0.0,0.0,0,Fish and Meat,0.0
30481,Donald`s Fishy,True,50,0.0,1.0,12451.0,318.0,6.0,123.0,267.0,187.0,96.0,36612.0,79.0,0.0,0.0,19.0,0.6175423017240551,19.0,1,38.96408313321943,-9.417316699445982,50133.0,0.2483593145514303,0.006343126016171779,0.002453473270406066,0.005325832221125362,0.0037300772485035307,0.0019149059671461977,0.7302972632203811,0.0015758080354640585,0.0,0.0,0,Fish and Meat,1.0
30691,Barbara`s Fishy,False,23,1.0,1.0,13796.0,76.0,7.0,584.0,282.0,66.0,157.0,39503.0,124.0,0.0,0.0,16.0,0.3902762762444115,0.0,1,38.96226990622058,-9.416772937956363,54588.0,0.2527294913296894,0.0013922471253302693,0.010698320015695754,0.00516596959662021,0.0012090567141026024,0.002876089456274372,0.7236570814726531,0.0022715610992230712,0.0,0.0,0,Fish and Meat,0.0
30901,Maria`s Fishy,False,40,1.0,1.0,15091.0,10.0,9.0,382.0,359.0,118.0,45.0,41698.0,109.0,0.0,0.0,6.0,0.3240963641588038,16.0,1,39.35730152703251,-9.380888937106583,57812.0,0.26103572596766655,0.00017297443904821852,0.006607623571641947,0.006209782361831045,0.0020410983807689787,0.0007783849757169834,0.7212688159432616,0.0018854213856255818,0.0,0.0,0,Fish and Meat,0.0
31173,Vernita`s Fishy,False,76,1.0,1.0,12066.0,156.0,8.0,106.0,370.0,168.0,58.0,36031.0,82.0,0.0,0.0,32.0,0.451359086139566,12.0,1,39.35666901665971,-9.380758055284865,49037.0,0.24605904805370474,0.0031812706361990664,0.002161632611776289,0.007545321380728555,0.0034259837620605332,0.0011827801083304221,0.7347715531595421,0.0016722063600533555,0.0,0.0,0,Fish and Meat,0.0
31250,Henrietta`s Fishy,False,60,0.0,1.0,13621.0,139.0,17.0,244.0,326.0,35.0,52.0,41550.0,104.0,0.0,0.0,17.0,0.5793621219056271,17.0,1,39.35755513749731,-9.38126628723471,56071.0,0.2429241064143485,0.0024789993973712973,0.004351624841428752,0.005814056140597432,0.000624208481352485,0.0009273954580094062,0.7410246400055929,0.0018547909160188125,0.0,0.0,0,Fish and Meat,0.0
31271,Irma`s Fishy,False,67,1.0,1.0,14388.0,281.0,7.0,207.0,221.0,64.0,70.0,43926.0,119.0,0.0,0.0,25.0,0.51672673476765,13.0,1,39.35653528858419,-9.381143839362618,59276.0,0.2427288881286038,0.00474053499889753,0.003492137881750138,0.0037283211201293745,0.0010796948040193662,0.0011809161918961818,0.741041780646167,0.0020075575262235093,0.0,0.0,0,Fish and Meat,0.0
31517,David`s Fishy,True,50,0.0,1.0,16021.0,479.0,9.0,664.0,291.0,85.0,131.0,36018.0,163.0,0.0,0.0,48.0,0.4407612944586295,12.0,1,39.356746469668,-9.381151848862526,53852.0,0.29750050183827864,0.008894746918452996,0.012330087586331502,0.005403698023527813,0.001578399766322557,0.0024325925810382933,0.6688329739224218,0.0030268136695361975,0.0,0.0,0,Fish and Meat,0.0
31584,Alvaro`s Fishy,True,32,0.0,1.0,13796.0,151.0,8.0,334.0,482.0,73.0,89.0,41058.0,40.0,0.0,0.0,13.0,0.3780939742021938,9.0,1,39.35675941780057,-9.380989796890908,56023.0,0.24625595804295414,0.002695321083247758,0.005961836038442061,0.008603607696194832,0.0013030360203780554,0.0015886329563513278,0.7328774373244137,0.000713992339933181,0.0,0.0,0,Fish and Meat,1.0
31838,Ursula`s Fishy,False,61,1.0,1.0,13837.0,104.0,9.0,321.0,445.0,36.0,33.0,45651.0,101.0,0.0,0.0,24.0,0.0,13.0,1,38.96345024145518,-9.417103952881632,60528.0,0.22860490539834366,0.0017182127745485106,0.005303329813750692,0.007351968121866223,0.0005947659604206383,0.0005452021303855851,0.7542128016434044,0.0016686489445134575,0.0,0.0,0,Fish and Meat,0.0
31962,Louis`s Fishy,True,74,0.0,1.0,11968.0,117.0,17.0,348.0,274.0,118.0,102.0,46037.0,134.0,0.0,0.0,22.0,0.765137910881577,13.0,1,39.35730015053016,-9.381609226379952,59098.0,0.2025110490184018,0.0019797620935121164,0.005888523149933475,0.0046363659283958965,0.001996683137046408,0.0017259464404977426,0.7789940811881821,0.0022674198335950737,0.0,0.0,0,Fish and Meat,0.0
31988,Cindy`s Fishy,False,51,0.0,1.0,13372.0,306.0,8.0,514.0,235.0,161.0,92.0,38170.0,3.0,0.0,0.0,6.0,0.5944000158882556,9.0,1,39.35619725138843,-9.380982087474214,52853.0,0.2530035659274656,0.0057896418765932154,0.00972508472081344,0.004446293598037274,0.00304618412461277,0.0017406766426358688,0.7221916027109904,5.676119486856094e-05,0.0,0.0,0,Fish and Meat,0.0
32141,Joshua`s Fishy,True,57,1.0,1.0,14180.0,329.0,6.0,319.0,396.0,126.0,102.0,34863.0,114.0,0.0,0.0,28.0,0.0,8.0,1,39.35720735551296,-9.382142665344103,50429.0,0.2811873562459386,0.006524022581446671,0.0063257240227400854,0.007852622924780795,0.0024985618397029806,0.0020226452988071747,0.6913282652187699,0.0022606035692550775,0.0,0.0,0,Fish and Meat,0.0
32156,Charles`s Fishy,True,33,0.0,1.0,11737.0,56.0,9.0,233.0,338.0,59.0,50.0,38939.0,11.0,0.0,0.0,18.0,0.4277023665367306,9.0,1,38.96341649019899,-9.417647343344894,51423.0,0.2282441265106807,0.0010890066528583217,0.004531045537785517,0.006572933011894869,0.0011473462949757316,0.0009723273686235013,0.7572291081366104,0.0002139120210971703,0.0,0.0,0,Fish and Meat,0.0
32166,Patricia`s Fishy,False,37,1.0,1.0,14383.0,138.0,8.0,758.0,381.0,189.0,127.0,46427.0,99.0,0.0,0.0,16.0,0.3028225668187405,15.0,1,39.35649802300112,-9.380620638304128,62502.0,0.23012059932152581,0.002207928993003585,0.012127609976063169,0.00609580395894468,0.0030239027512875185,0.00203193465298156,0.7428081112911409,0.0015839490601982239,0.0,0.0,0,Fish and Meat,0.0
32373,Karin`s Fishy,False,79,1.0,1.0,14082.0,324.0,6.0,258.0,307.0,180.0,138.0,36880.0,58.0,0.0,0.0,20.0,0.1798710805856706,17.0,1,39.35642052518624,-9.3815081856591,52227.0,0.2696305991861299,0.006203686559885392,0.004939972631019849,0.005878184487298813,0.0034464925332696626,0.002642310942173408,0.7061480257054731,0.0011105364829424467,0.0,0.0,0,Fish and Meat,0.0
32586,Jeremy`s Fishy,True,65,0.0,1.0,13198.0,406.0,9.0,26.0,294.0,168.0,46.0,39207.0,102.0,0.0,0.0,11.0,0.5840122039048918,14.0,1,38.96411371711935,-9.417296633352214,53447.0,0.24693617098505602,0.007596308942258884,0.00048646313423332755,0.005500775440946088,0.0031433002519691933,0.000860665545182041,0.7335676963033105,0.0019084322958384389,0.0,0.0,0,Fish and Meat,0.0
32674,Dean`s Fishy,True,63,0.0,1.0,13187.0,312.0,8.0,208.0,361.0,209.0,106.0,34413.0,90.0,0.0,0.0,14.0,0.3292064157882678,12.0,1,38.96304446749628,-9.41666437180994,48886.0,0.26974997550423935,0.006382194006015218,0.0042547960040101454,0.007384525756959915,0.004275251754029425,0.0021683095020436317,0.703943725413467,0.001841017501735159,0.0,0.0,0,Fish and Meat,0.0
32840,Brian`s Fishy,True,48,1.0,1.0,12319.0,175.0,6.0,226.0,304.0,108.0,74.0,40227.0,79.0,0.0,0.0,25.0,0.1346148355416224,13.0,1,39.35632595635487,-9.382239251748135,53512.0,0.23021000332448732,0.0032702939022473646,0.004223350982330882,0.00568096769304685,0.0020182385225298023,0.001382867135807457,0.7517377874611699,0.001476304104443096,0.0,0.0,0,Fish and Meat,1.0
32862,Jerome`s Fishy,True,28,0.0,1.0,14098.0,376.0,6.0,120.0,342.0,138.0,67.0,38151.0,41.0,0.0,0.0,23.0,0.6495205428269563,10.0,1,38.96288712569908,-9.416980081983068,53333.0,0.2643391025558092,0.0070500427408841165,0.002250013640707697,0.006412538876016936,0.0025875156868138513,0.0012562576160617973,0.7153355867219945,0.0007687546605751297,0.0,0.0,0,Fish and Meat,1.0
32939,Minerva`s Fishy,False,34,0.0,1.0,14050.0,142.0,17.0,685.0,341.0,121.0,83.0,37855.0,29.0,0.0,0.0,13.0,0.7396898549253903,11.0,1,39.35744564325782,-9.381512446734954,53306.0,0.2635725315025454,0.002663864731200103,0.012850333386423031,0.006397027277036867,0.0022699129047550172,0.0015570476949972431,0.7101450661942246,0.0005440287127098802,0.0,0.0,0,Fish and Meat,0.0
32965,Lois`s Fishy,False,60,0.0,1.0,13437.0,326.0,9.0,481.0,301.0,145.0,122.0,42302.0,140.0,0.0,0.0,27.0,0.3637383164243459,11.0,1,38.96247385409658,-9.417012330821107,57254.0,0.23469098496332397,0.0056939243207593665,0.008401158276948636,0.005257273682664323,0.002532573700951252,0.0021308551139038122,0.7388478117078612,0.0024452435733322434,0.0,0.0,0,Fish and Meat,0.0
32971,Douglas`s Fishy,True,80,0.0,1.0,12102.0,370.0,7.0,410.0,432.0,222.0,111.0,38255.0,140.0,0.0,0.0,13.0,0.6304773660892888,15.0,1,39.35683103232791,-9.38170664525099,52042.0,0.23254290139831263,0.007109640845924282,0.007878250667105286,0.008300986068754838,0.0042657845075545694,0.0021328922537772847,0.7350792177319823,0.002690134374133512,0.0,0.0,0,Fish and Meat,0.0
33017,Corey`s Fishy,True,70,1.0,1.0,11943.0,349.0,17.0,651.0,389.0,15.0,134.0,45727.0,137.0,0.0,0.0,26.0,0.3227802234611165,15.0,1,38.962474964488266,-9.41701122219624,59345.0,0.20124691191390817,0.005880865130867784,0.010969751289956814,0.006554889787700769,0.00025275924631236896,0.002257982600390496,0.7705281370750464,0.00230853444965297,0.0,0.0,0,Fish and Meat,0.0
33034,Edward`s Fishy,True,40,0.0,1.0,13711.0,273.0,10.0,,217.0,87.0,146.0,39830.0,56.0,0.0,0.0,20.0,0.595292221034804,18.0,1,38.96261632153729,-9.416632641747178,54320.0,0.25241158828947197,0.0050257722706604805,,0.003994844625396792,0.001601619734606087,0.00268777564658033,0.7332472876937982,0.0010309276452636882,0.0,0.0,0,Fish and Meat,0.0
33233,Melanie`s Fishy,False,60,0.0,1.0,14705.0,81.0,9.0,146.0,399.0,81.0,70.0,40090.0,99.0,0.0,0.0,5.0,0.1147471219588961,12.0,1,39.356104700785245,-9.381236225855806,55671.0,0.2641410673167237,0.0014549762973583558,0.002622549869312592,0.007167105464765234,0.0014549762973583558,0.0012573869236430235,0.7201234538406973,0.0017783043634379903,0.0,0.0,0,Fish and Meat,0.0
33464,Carol`s Fishy,False,46,0.0,1.0,14353.0,52.0,6.0,267.0,315.0,191.0,21.0,41780.0,40.0,0.0,0.0,19.0,0.3707893603065382,13.0,1,39.35724746518861,-9.380965289154943,57019.0,0.25172306569335384,0.0009119765495753082,0.004682648821857833,0.005524473329158118,0.0033497600186323823,0.0003682982219438745,0.7327380815626227,0.0007015204227502371,0.0,0.0,0,Fish and Meat,0.0
33620,William`s Fishy,True,79,1.0,1.0,16356.0,125.0,7.0,1389.0,255.0,34.0,139.0,42318.0,54.0,0.0,0.0,38.0,0.135783492318142,14.0,1,39.35702470501954,-9.380993938449802,60670.0,0.2695895385545511,0.0020603260160992226,0.022894342690894562,0.004203065072842414,0.0005604086763789885,0.0022910825299023354,0.6975110107942952,0.0008900608389548642,0.0,0.0,0,Fish and Meat,0.0
33659,Vera`s Fishy,False,84,1.0,1.0,13973.0,75.0,,574.0,223.0,76.0,66.0,39303.0,96.0,0.0,0.0,23.0,0.2692299881308589,10.0,1,38.96350197559659,-9.417987732676645,54386.0,0.2569226902286084,0.001379031114803237,0.010554184798627441,0.004100319181348291,0.0013974181963339468,0.0012135473810268487,0.7226674654014883,0.0017651598269481433,0.0,0.0,0,Fish and Meat,0.0
33747,Harold`s Fishy,True,50,0.0,1.0,14827.0,129.0,17.0,210.0,254.0,43.0,72.0,37765.0,67.0,0.0,0.0,25.0,0.1668501726578407,18.0,1,38.9628113592972,-9.416139746170938,53367.0,0.27783081720336217,0.0024172236743261427,0.003935015283786744,0.004759494676580157,0.0008057412247753808,0.001349148097298312,0.7076469152009828,0.0012554572572081517,0.0,0.0,0,Fish and Meat,0.0
33929,Evelyn`s Fishy,False,52,1.0,1.0,14890.0,7.0,7.0,237.0,215.0,100.0,75.0,36411.0,100.0,0.0,0.0,20.0,0.4641272483588977,11.0,1,39.356219727772114,-9.381806134802009,52035.0,0.286153495502355,0.0001345248131978835,0.004554625818271199,0.004131833548220707,0.00192178304568405,0.0014413372842630374,0.6997404247640194,0.00192178304568405,0.0,0.0,0,Fish and Meat,0.0
34150,Jerry`s Fishy,True,41,1.0,1.0,16092.0,160.0,7.0,704.0,347.0,30.0,74.0,38159.0,59.0,0.0,0.0,21.0,0.2872853134942672,15.0,1,38.962334982601135,-9.416944119925557,55625.0,0.28929433001450244,0.0028764039772756892,0.012656177500013034,0.006238201125716651,0.0005393257457391918,0.0013303368394900063,0.6860043710553939,0.0010606739666204105,0.0,0.0,0,Fish and Meat,0.0
34354,Ernestine`s Fishy,False,25,0.0,1.0,13304.0,8.0,7.0,150.0,399.0,17.0,147.0,40068.0,81.0,0.0,0.0,19.0,0.5194783731831082,2.0,1,38.962567674671,-9.417842671254885,54174.0,0.2455790147341871,0.0001476722878738347,0.0027688553976344004,0.007365155357707506,0.00031380361173189873,0.0027134782896817127,0.7396166538161011,0.0014951819147225763,0.0,0.0,0,Fish and Meat,0.0
34913,Amanda`s Fishy,False,73,1.0,1.0,16840.0,280.0,8.0,391.0,302.0,118.0,42.0,36993.0,144.0,0.0,0.0,15.0,0.488625661961834,11.0,1,38.96298964421753,-9.416647458744505,55110.0,0.30557062138076185,0.0050807466737893894,0.007094899819470183,0.005479948198158556,0.0021411718125255285,0.0007621120010684084,0.6712573632267531,0.002612955432234543,0.0,0.0,0,Fish and Meat,0.0
35073,David`s Fishy,True,82,0.0,1.0,11100.0,289.0,17.0,363.0,149.0,95.0,92.0,35121.0,108.0,0.0,0.0,25.0,0.0632149721378017,10.0,1,38.96240561362727,-9.416497815928013,47317.0,0.23458794205297417,0.006107740112910769,0.007671659726597263,0.0031489732762065904,0.0020077346391921213,0.0019443324926913174,0.7422489290849105,0.0022824772740289378,0.0,0.0,0,Fish and Meat,0.0
35137,John`s Fishy,True,36,1.0,1.0,15381.0,314.0,8.0,975.0,410.0,80.0,86.0,43077.0,107.0,0.0,0.0,22.0,0.5789676862299642,14.0,1,38.96394401207525,-9.417059899893326,60430.0,0.2545258556137919,0.005196093795119345,0.016134367675927904,0.006784708458595324,0.0013238455528966485,0.0014231339693638971,0.7128411860266116,0.0017706434269992675,0.0,0.0,0,Fish and Meat,0.0
35330,Marilyn`s Fishy,False,82,1.0,1.0,11510.0,96.0,6.0,276.0,378.0,125.0,26.0,40255.0,85.0,0.0,0.0,19.0,0.8719284024743011,12.0,1,38.96256617963552,-9.41655049143228,52751.0,0.21819487437302149,0.0018198703683588238,0.0052321273090316185,0.007165739575412868,0.0023696228754672183,0.0004928815580971815,0.763113350815463,0.0016113435553177086,0.0,0.0,0,Fish and Meat,0.0
35368,Edwina`s Fishy,False,56,1.0,1.0,13869.0,110.0,7.0,270.0,323.0,65.0,90.0,35844.0,122.0,0.0,0.0,10.0,0.6267912946054081,18.0,1,38.96364279642869,-9.41754288110652,50693.0,0.27358801538910393,0.0021699244136420383,0.005326178106212277,0.006371687141876168,0.001282228062606659,0.0017753927020707587,0.7070797334780475,0.0024066434405848065,0.0,0.0,0,Fish and Meat,
35381,Cristy`s Fishy,False,32,0.0,1.0,13295.0,261.0,11.0,211.0,317.0,133.0,10.0,45791.0,48.0,0.0,0.0,8.0,0.2965245508159066,11.0,1,39.35598273280184,-9.38034550841508,60066.0,0.22133982263846058,0.004345219534309004,0.003512801999000766,0.005277527173854231,0.002214230643919914,0.00016648350706164767,0.7623446271859908,0.0007991208338959089,0.0,0.0,0,Fish and Meat,0.0
35641,Ronald`s Fishy,True,39,0.0,1.0,15270.0,67.0,6.0,314.0,193.0,43.0,157.0,40939.0,90.0,0.0,0.0,15.0,0.351142057817508,12.0,1,38.96365885765749,-9.417777850650664,57073.0,0.26755203554184365,0.0011739349300133285,0.00550172489588336,0.003381633455113021,0.0007534209252324347,0.00275086244794168,0.7173092850718754,0.0015769275179283518,0.0,0.0,0,Fish and Meat,0.0
